city_name,country_full,lat,lon
Kozáni,Piraiós Nomós,40.30069,21.78896
Komotiní,Piraiós Nomós,41.11917,25.40535
Maurepas,France,48.76486,1.92923
Manosque,France,43.82883,5.78688
Les Mureaux,France,48.99173,1.90972
Kilkís,Piraiós Nomós,40.99302,22.87433
Le Creusot,France,46.80714,4.41632
Évry,France,48.63333,2.45
Évreux,France,49.02414,1.15082
Dieppe,France,49.93333,1.08333
Créteil,France,48.78333,2.46667
Caen,France,49.18585,-0.35912
Cachan,France,48.79632,2.33661
Brest,France,48.4,-4.48333
Bressuire,France,46.85,-0.48333
Avon,France,48.40219,2.72022
Avion,France,50.41038,2.83053
Amiens,France,49.9,2.3
Teo,Spain,42.75,-8.5
Zubia,Spain,37.11906,-3.584
Zafra,Spain,38.41667,-6.41667
Yecla,Spain,38.61365,-1.11468
Villena,Spain,38.6373,-0.86568
Villarrobledo,Spain,39.26992,-2.60119
Vila-real,Spain,39.9383,-0.10087
Villanueva de la Serena,Spain,38.97655,-5.7974
Villajoyosa,Spain,38.50754,-0.23346
Vícar,Spain,36.83155,-2.64273
Vélez-Málaga,Spain,36.78107,-4.10266
Valencia,Spain,39.46975,-0.37739
Valdepeñas,Spain,38.76211,-3.38483
Utrera,Spain,37.18516,-5.78093
Ubrique,Spain,36.67777,-5.446
Úbeda,Spain,38.01328,-3.3705
Totana,Spain,37.7688,-1.50229
Torrox,Spain,36.75793,-3.95233
Torrevieja,Spain,37.97872,-0.68222
Torre-Pacheco,Spain,37.74293,-0.95396
Torrent,Spain,39.43705,-0.46546
Torremolinos,Spain,36.62035,-4.49976
Rangpur,Bangladesh,25.74664,89.25166
Sherpur,Bangladesh,25.01881,90.01751
Meylan,France,45.21988,5.79007
Mauguio,France,43.6181,4.00739
Kavála,Piraiós Nomós,40.93959,24.40687
Maubeuge,France,50.27875,3.97267
Massy,France,48.72692,2.28301
Wasquehal,France,50.67043,3.13382
Vendôme,France,47.8,1.06667
Limoges,France,45.83153,1.25781
Trappes,France,48.77413,2.01781
La Ciotat,France,43.17476,5.60449
Hyères,France,43.11954,6.13897
les Escaldes,Andorra,42.50729,1.53414
Andorra la Vella,Andorra,42.50779,1.52109
Umm al Qaywayn,United Arab Emirates,25.56473,55.55517
Ras al-Khaimah,United Arab Emirates,25.78953,55.9432
Khawr Fakkān,United Arab Emirates,25.33132,56.34199
Dubai,United Arab Emirates,25.0657,55.17128
Dibba Al-Fujairah,United Arab Emirates,25.59246,56.26176
Sharjah,United Arab Emirates,25.33737,55.41206
Ar Ruways,United Arab Emirates,24.11028,52.73056
Al Fujayrah,United Arab Emirates,25.11641,56.34141
Al Ain,United Arab Emirates,24.19167,55.76056
Ajman,United Arab Emirates,25.41111,55.43504
Adh Dhayd,United Arab Emirates,25.28812,55.88157
Abu Dhabi,United Arab Emirates,24.46667,54.36667
Zaranj,Afghanistan,30.95962,61.86037
Taloqan,Afghanistan,36.73605,69.53451
Shīnḏanḏ,Afghanistan,33.30294,62.1474
Shibirghān,Afghanistan,36.66757,65.7529
Shahrak,Afghanistan,34.10737,64.3052
Sar-e Pul,Afghanistan,36.21544,65.93249
Sang-e Chārak,Afghanistan,35.84972,66.43694
Aībak,Afghanistan,36.26468,68.01551
Rustāq,Afghanistan,37.12604,69.83045
Qarqīn,Afghanistan,37.41853,66.04358
Qarāwul,Afghanistan,37.21959,68.7802
Pul-e Khumrī,Afghanistan,35.94458,68.71512
Paghmān,Afghanistan,34.58787,68.95091
Nahrīn,Afghanistan,36.0649,69.13343
Maymana,Afghanistan,35.92139,64.78361
Mehtar Lām,Afghanistan,34.67139,70.20944
Mazār-e Sharīf,Afghanistan,36.70904,67.11087
Lashkar Gāh,Afghanistan,31.59382,64.37161
Kushk,Afghanistan,33.29565,61.95221
Kunduz,Afghanistan,36.72895,68.857
Khōst,Afghanistan,33.33951,69.92041
Khulm,Afghanistan,36.69736,67.69826
Khāsh,Afghanistan,31.52919,62.79055
Khanabad,Afghanistan,36.6825,69.11556
Karukh,Afghanistan,34.48108,62.5863
Kandahār,Afghanistan,31.61332,65.71013
Kabul,Afghanistan,34.52813,69.17233
Jalālābād,Afghanistan,34.42647,70.45153
Jabal os Saraj,Afghanistan,35.11833,69.23778
Herāt,Afghanistan,34.34817,62.19967
Ghormach,Afghanistan,35.73062,63.78264
Ghazni,Afghanistan,33.55391,68.42096
Gereshk,Afghanistan,31.82089,64.57005
Gardez,Afghanistan,33.59744,69.22592
Fayzabad,Afghanistan,37.11664,70.58002
Farah,Afghanistan,32.37451,62.11638
Kafir Qala,Afghanistan,34.66667,61.06667
Charikar,Afghanistan,35.01361,69.17139
Baraki Barak,Afghanistan,33.96744,68.9492
Bāmyān,Afghanistan,34.82156,67.82734
Balkh,Afghanistan,36.75635,66.8972
Baghlān,Afghanistan,36.13068,68.70829
Ārt Khwājah,Afghanistan,37.08571,69.47958
Āsmār,Afghanistan,35.03333,71.35809
Asadābād,Afghanistan,34.87311,71.14697
Andkhōy,Afghanistan,36.95293,65.12376
Bāzārak,Afghanistan,35.31292,69.51519
Markaz-e Woluswalī-ye Āchīn,Afghanistan,34.12583,70.70778
Saint John’s,Antigua and Barbuda,17.11717,-61.84573
The Valley,Anguilla,18.21704,-63.05783
Sarandë,Albania,39.87556,20.00528
Kukës,Albania,42.07694,20.42194
Korçë,Albania,40.61861,20.78083
Gjirokastër,Albania,40.07583,20.13889
Elbasan,Albania,41.1125,20.08222
Burrel,Albania,41.61028,20.00889
Vlorë,Albania,40.46667,19.48972
Tirana,Albania,41.3275,19.81889
Shkodër,Albania,42.06828,19.51258
Patos Fshat,Albania,40.64278,19.65083
Lushnjë,Albania,40.94194,19.705
Lezhë,Albania,41.78361,19.64361
Laç,Albania,41.63556,19.71306
Kuçovë,Albania,40.80028,19.91667
Krujë,Albania,41.50917,19.79278
Kavajë,Albania,41.18556,19.55694
Fier-Çifçi,Albania,40.71667,19.56667
Fier,Albania,40.72389,19.55611
Durrës,Albania,41.32306,19.44139
Berat,Albania,40.70583,19.95222
Kapan,Armenia,39.20755,46.40576
Goris,Armenia,39.51111,46.34168
Hats’avan,Armenia,39.46405,45.97047
Artashat,Armenia,39.96144,44.54447
Ararat,Armenia,39.83069,44.70569
Yerevan,Armenia,40.18111,44.51361
Ejmiatsin,Armenia,40.16557,44.29462
Step’anavan,Armenia,41.00995,44.38531
Spitak,Armenia,40.83221,44.26731
Sevan,Armenia,40.5473,44.94171
Masis,Armenia,40.06542,44.41618
Vanadzor,Armenia,40.80456,44.4939
Gavarr,Armenia,40.35398,45.12386
Hrazdan,Armenia,40.49748,44.7662
Armavir,Armenia,40.15446,44.03815
Gyumri,Armenia,40.7942,43.84528
Ashtarak,Armenia,40.2991,44.36204
Abovyan,Armenia,40.27368,44.63348
Saurimo,Angola,-9.66078,20.39155
Lucapa,Angola,-8.41915,20.74466
Luau,Angola,-10.70727,22.22466
Uíge,Angola,-7.60874,15.06131
Soio,Angola,-6.1349,12.36894
Nzeto,Angola,-7.23116,12.8666
N’dalatando,Angola,-9.29782,14.91162
Mbanza Congo,Angola,-6.26703,14.2401
Malanje,Angola,-9.54015,16.34096
Luanda,Angola,-8.83682,13.23432
Caxito,Angola,-8.57848,13.66425
Cabinda,Angola,-5.55,12.2
Sumbe,Angola,-11.20605,13.84371
Namibe,Angola,-15.19611,12.15222
Menongue,Angola,-14.6585,17.69099
Luena,Angola,-11.78333,19.91667
Lubango,Angola,-14.91717,13.4925
Longonjo,Angola,-12.90667,15.25333
Lobito,Angola,-12.3644,13.53601
Cuito,Angola,-12.38333,16.93333
Huambo,Angola,-12.77611,15.73917
Catumbela,Angola,-12.43002,13.54677
Catabola,Angola,-12.15,17.28333
Camacupa,Angola,-12.01667,17.48333
Caluquembe,Angola,-13.78333,14.68333
Caála,Angola,-12.8525,15.56056
Benguela,Angola,-12.57626,13.40547
Zárate,Argentina,-34.09814,-59.02858
Villa Ocampo,Argentina,-28.48752,-59.35515
Villa Lugano,Argentina,-34.67907,-58.47263
Villaguay,Argentina,-31.8653,-59.02689
Villa Gesell,Argentina,-37.26394,-56.97304
Tigre,Argentina,-34.42603,-58.57962
Tandil,Argentina,-37.32167,-59.13316
San Vicente,Argentina,-26.61667,-54.13333
Santo Tomé,Argentina,-28.54939,-56.04077
Santa Elena,Argentina,-30.94768,-59.78696
San Pedro,Argentina,-26.62207,-54.10842
San Luis del Palmar,Argentina,-27.5079,-58.55454
San Lorenzo,Argentina,-28.13306,-58.76733
San Javier,Argentina,-30.57781,-59.9317
San Isidro,Argentina,-34.4721,-58.52708
Saladas,Argentina,-28.25384,-58.62591
Retiro,Argentina,-34.58333,-58.38333
Resistencia,Argentina,-27.46056,-58.98389
Reconquista,Argentina,-29.15,-59.65
Quilmes,Argentina,-34.72904,-58.26374
Puerto Rico,Argentina,-26.79598,-55.02402
Puerto Iguazú,Argentina,-25.59912,-54.57355
Puerto Esperanza,Argentina,-26.01517,-54.67306
Puerto Eldorado,Argentina,-26.40843,-54.69463
Posadas,Argentina,-27.36708,-55.89608
Pontevedra,Argentina,-34.74785,-58.70072
Pirané,Argentina,-25.73239,-59.10879
Paso de los Libres,Argentina,-29.71251,-57.08771
Oberá,Argentina,-27.48706,-55.11994
Necochea,Argentina,-38.5545,-58.73961
Morón,Argentina,-34.6509,-58.61956
Monte Caseros,Argentina,-30.25359,-57.63626
Montecarlo,Argentina,-26.5662,-54.757
Mercedes,Argentina,-34.65145,-59.43068
Mercedes,Argentina,-29.18416,-58.07519
Mar del Plata,Argentina,-38.00228,-57.55754
Luján,Argentina,-34.57028,-59.105
La Plata,Argentina,-34.92145,-57.95453
La Paz,Argentina,-30.74485,-59.64566
Jardín América,Argentina,-27.04346,-55.22698
Gualeguaychú,Argentina,-33.00937,-58.51722
Gualeguay,Argentina,-33.14156,-59.30966
Goya,Argentina,-29.14395,-59.2651
Gobernador Ingeniero Valentín Virasoro,Argentina,-28.05,-56.03333
General José de San Martín,Argentina,-26.53743,-59.34158
Garupá,Argentina,-27.48171,-55.82921
Formosa,Argentina,-26.17753,-58.17814
Fontana,Argentina,-27.41813,-59.02392
Federal,Argentina,-30.95465,-58.78326
Esquina,Argentina,-30.01444,-59.52719
El Soberbio,Argentina,-27.29847,-54.19877
Dolores,Argentina,-36.31321,-57.67918
Curuzú Cuatiá,Argentina,-29.79171,-58.0546
Corrientes,Argentina,-27.4806,-58.8341
Concordia,Argentina,-31.39296,-58.02089
Concepción del Uruguay,Argentina,-32.48249,-58.23722
Colegiales,Argentina,-34.57365,-58.44924
Chajarí,Argentina,-30.75048,-57.97962
Campana,Argentina,-34.16874,-58.95914
Buenos Aires,Argentina,-34.61315,-58.37723
Barranqueras,Argentina,-27.48132,-58.93925
Azul,Argentina,-36.77698,-59.85854
Avellaneda,Argentina,-29.11761,-59.65834
Aristóbulo del Valle,Argentina,-27.09625,-54.89626
Zapala,Argentina,-38.89916,-70.05442
Yerba Buena,Argentina,-26.81667,-65.31667
Villa Regina,Argentina,-39.1,-67.06667
Villa Paula de Sarmiento,Argentina,-31.4933,-68.53838
Villa Nueva,Argentina,-32.43293,-63.24763
Villa María,Argentina,-32.40751,-63.24016
Villa Dolores,Argentina,-31.94585,-65.18958
Villa Constitución,Argentina,-33.22778,-60.3297
Villa Carlos Paz,Argentina,-31.42414,-64.49778
Villa Ángela,Argentina,-27.57383,-60.71526
Villa Allende,Argentina,-31.29458,-64.29538
Viedma,Argentina,-40.81345,-62.99668
Victoria,Argentina,-32.61841,-60.15478
Vera,Argentina,-29.4593,-60.21261
Venado Tuerto,Argentina,-33.74556,-61.96885
Veinticinco de Mayo,Argentina,-35.4323,-60.17271
Ushuaia,Argentina,-54.8,-68.3
Unquillo,Argentina,-31.23073,-64.31615
Tres Isletas,Argentina,-26.34067,-60.43207
Tres Arroyos,Argentina,-38.37394,-60.27978
Trelew,Argentina,-43.24895,-65.30505
Termas de Río Hondo,Argentina,-27.49362,-64.85972
Tartagal,Argentina,-22.51637,-63.80131
Tafí Viejo,Argentina,-26.73201,-65.25921
Sunchales,Argentina,-30.94404,-61.56148
Santo Tomé,Argentina,-31.66274,-60.7653
Santiago del Estero,Argentina,-27.79511,-64.26149
Santa Rosa,Argentina,-36.61667,-64.28333
Santa Lucía,Argentina,-31.53987,-68.49503
Santa Fe de la Vera Cruz,Argentina,-31.63333,-60.7
San Salvador de Jujuy,Argentina,-24.19457,-65.29712
San Ramón de la Nueva Orán,Argentina,-23.13705,-64.32426
San Rafael,Argentina,-34.61772,-68.33007
San Pedro,Argentina,-24.23127,-64.86614
San Nicolás de los Arroyos,Argentina,-33.33578,-60.22523
San Miguel de Tucumán,Argentina,-26.82414,-65.2226
San Martín de los Andes,Argentina,-40.15789,-71.35337
San Martín,Argentina,-33.08103,-68.46814
San Luis,Argentina,-33.29501,-66.33563
San Justo,Argentina,-30.78913,-60.59189
San Juan,Argentina,-31.5375,-68.53639
San José de Jáchal,Argentina,-30.24057,-68.74693
San Jorge,Argentina,-31.89618,-61.85984
San Francisco,Argentina,-31.42797,-62.08266
San Fernando del Valle de Catamarca,Argentina,-28.46957,-65.78524
Salta,Argentina,-24.7859,-65.41166
Rufino,Argentina,-34.26827,-62.71262
Rosario,Argentina,-32.94682,-60.63932
Río Tercero,Argentina,-32.17301,-64.11405
Río Segundo,Argentina,-31.6526,-63.9099
Río Gallegos,Argentina,-51.62261,-69.21813
Río Cuarto,Argentina,-33.13067,-64.34992
Río Ceballos,Argentina,-31.16486,-64.32241
Rawson,Argentina,-43.30016,-65.10228
Rafaela,Argentina,-31.25033,-61.4867
Quitilipi,Argentina,-26.86913,-60.21683
Punta Alta,Argentina,-38.87588,-62.07359
Puerto Madryn,Argentina,-42.7692,-65.03851
Presidencia Roque Sáenz Peña,Argentina,-26.78522,-60.43876
Pocito,Argentina,-31.68333,-68.58333
Plottier,Argentina,-38.96667,-68.23333
Pergamino,Argentina,-33.88995,-60.57357
Pérez,Argentina,-32.99835,-60.76791
Paraná,Argentina,-31.73197,-60.5238
Palpalá,Argentina,-24.25647,-65.21163
Olavarría,Argentina,-36.89272,-60.32254
Nueve de Julio,Argentina,-35.44437,-60.88313
Neuquén,Argentina,-38.95161,-68.0591
Morteros,Argentina,-30.71164,-61.99862
Monteros,Argentina,-27.16741,-65.49832
Mendoza,Argentina,-32.89084,-68.82717
Marcos Juárez,Argentina,-32.6978,-62.10672
Machagai,Argentina,-26.92614,-60.04955
Guéret,France,46.16667,1.86667
Lincoln,Argentina,-34.86649,-61.5302
Libertador General San Martín,Argentina,-23.80644,-64.78757
Las Breñas,Argentina,-27.08966,-61.08161
La Rioja,Argentina,-29.41105,-66.85067
La Falda,Argentina,-31.08841,-64.48987
La Calera,Argentina,-31.34377,-64.33529
Laboulaye,Argentina,-34.12662,-63.39119
Junín,Argentina,-34.58382,-60.94332
Joaquín V. González,Argentina,-25.08333,-64.18333
Jesús María,Argentina,-30.98153,-64.09424
Granadero Baigorria,Argentina,-32.85683,-60.71754
Gobernador Gálvez,Argentina,-33.03016,-60.64045
General Villegas,Argentina,-35.03285,-63.01252
General Roca,Argentina,-39.03333,-67.58333
General Pinedo,Argentina,-27.31667,-61.28333
General Pico,Argentina,-35.65662,-63.75682
General Enrique Mosconi,Argentina,-22.59588,-63.81255
Gálvez,Argentina,-32.02927,-61.22103
Firmat,Argentina,-33.45937,-61.4832
Famaillá,Argentina,-27.05413,-65.40329
Esquel,Argentina,-42.91147,-71.31947
Esperanza,Argentina,-31.4488,-60.93173
Embarcación,Argentina,-23.21003,-64.09965
Embalse,Argentina,-32.18,-64.41809
El Bolsón,Argentina,-41.96051,-71.53336
Diamante,Argentina,-32.06641,-60.63837
Deán Funes,Argentina,-30.42036,-64.34984
Cutral-Có,Argentina,-38.93424,-69.23052
Cruz del Eje,Argentina,-30.72644,-64.80387
Crespo,Argentina,-32.02873,-60.30658
Cosquín,Argentina,-31.24508,-64.46563
Coronel Suárez,Argentina,-37.45467,-61.93343
Coronda,Argentina,-31.97263,-60.91983
Córdoba,Argentina,-31.4135,-64.18105
Comodoro Rivadavia,Argentina,-45.86413,-67.49656
Cipolletti,Argentina,-38.93392,-67.99032
Cinco Saltos,Argentina,-38.82225,-68.06293
Chivilcoy,Argentina,-34.89566,-60.01667
Chimbas,Argentina,-31.48333,-68.53333
Chilecito,Argentina,-29.16195,-67.4974
Charata,Argentina,-27.21438,-61.18795
Chacabuco,Argentina,-34.64167,-60.47389
Centenario,Argentina,-38.82955,-68.1318
Caucete,Argentina,-31.65179,-68.28105
Catriel,Argentina,-37.87907,-67.7956
Castelli,Argentina,-25.94679,-60.61947
Casilda,Argentina,-33.04417,-61.16806
Carcarañá,Argentina,-32.85679,-61.15331
Capitán Bermúdez,Argentina,-32.82262,-60.71852
Cañada de Gómez,Argentina,-32.81636,-61.39493
Caleta Olivia,Argentina,-46.43929,-67.52814
Bell Ville,Argentina,-32.62591,-62.68873
Bella Vista,Argentina,-27.03424,-65.30196
Bahía Blanca,Argentina,-38.71959,-62.27243
Arroyo Seco,Argentina,-33.15489,-60.50863
Arroyito,Argentina,-31.42022,-63.05002
Añatuya,Argentina,-28.46064,-62.83472
Alta Gracia,Argentina,-31.65292,-64.42826
Allen,Argentina,-38.97736,-67.82714
Alderetes,Argentina,-26.81667,-65.13333
Albardón,Argentina,-31.43722,-68.52556
Aguilares,Argentina,-27.4338,-65.61427
Villa Santa Rita,Argentina,-34.61082,-58.481
Villa Mercedes,Argentina,-33.67571,-65.45783
San Carlos de Bariloche,Argentina,-41.14557,-71.30822
Adrogué,Argentina,-34.80041,-58.38384
Pago Pago,,-14.27806,-170.7025
Wolfsberg,Austria,46.84056,14.84417
Wiener Neustadt,Austria,47.8,16.25
Vienna,Austria,48.20849,16.37208
Wels,Austria,48.16667,14.03333
Weinzierl bei Krems,Austria,48.4,15.6
Villach,Austria,46.61028,13.85583
Traun,Austria,48.22656,14.23459
Traiskirchen,Austria,48.01485,16.29324
Ternitz,Austria,47.71565,16.03575
Steyr,Austria,48.04274,14.42127
Spittal an der Drau,Austria,46.8,13.5
Schwechat,Austria,48.13333,16.46667
Guérande,France,47.32911,-2.42829
Sankt Pölten,Austria,48.2,15.63333
Salzburg,Austria,47.79941,13.04399
Saalfelden am Steinernen Meer,Austria,47.42681,12.848
Mödling,Austria,48.08605,16.28921
Morlaix,France,48.58333,-3.83333
Lustenau,Austria,47.42642,9.65851
Linz,Austria,48.30639,14.28611
Leonding,Austria,48.27965,14.2533
Leoben,Austria,47.3765,15.09144
Kufstein,Austria,47.58333,12.16667
Krems an der Donau,Austria,48.40921,15.61415
Klosterneuburg,Austria,48.30521,16.32522
Klagenfurt am Wörthersee,Austria,46.62472,14.30528
Kapfenberg,Austria,47.44458,15.29331
Innsbruck,Austria,47.26266,11.39454
Hallein,Austria,47.68333,13.1
Dinājpur,Bangladesh,25.62745,88.63779
Graz,Austria,47.06667,15.45
Feldkirch,Austria,47.23306,9.6
Dornbirn,Austria,47.41427,9.74195
Bregenz,Austria,47.50311,9.7471
Braunau am Inn,Austria,48.25628,13.04343
Baden,Austria,48.00543,16.23264
Amstetten,Austria,48.1229,14.87206
Ansfelden,Austria,47.965,13.04944
Kateríni,Piraiós Nomós,40.26956,22.50608
Fizuli,Azerbaijan,39.60094,47.14529
Beylagan,Azerbaijan,39.77556,47.61861
Maroubra,Australia,-33.95,151.23333
Langwarrin,Australia,-38.16667,145.16667
Montfermeil,France,48.8982,2.57913
Earlwood,Australia,-33.95,151.1
Montargis,France,48,2.75
Dzhalilabad,Azerbaijan,39.20963,48.49186
Oranjestad,Aruba,12.52398,-70.02703
Babijn,Aruba,12.53333,-69.98333
Angochi,Aruba,12.51667,-69.95
Xankandi,Azerbaijan,39.8177,46.7528
Əhmədbəyli,Azerbaijan,39.87867,48.39901
Shushi,Azerbaijan,39.76006,46.74989
Salyan,Azerbaijan,39.59621,48.98479
Saatlı,Azerbaijan,39.93214,48.36892
Neftçala,Azerbaijan,39.3768,49.247
Nakhchivan,Azerbaijan,39.20889,45.41222
Lankaran,Azerbaijan,38.75428,48.85062
Imishli,Azerbaijan,39.87095,48.05995
Pushkino,Azerbaijan,39.45833,48.545
Astara,Azerbaijan,38.45598,48.87498
Şirvan,Azerbaijan,39.93778,48.929
Ağdam,Azerbaijan,39.99096,46.92736
Zaqatala,Azerbaijan,41.6316,46.64479
Zabrat,Azerbaijan,40.47746,49.94174
Yevlakh,Azerbaijan,40.61832,47.15014
Yelenendorf,Azerbaijan,40.58584,46.3189
Xaçmaz,Azerbaijan,41.46426,48.80565
Ujar,Azerbaijan,40.51902,47.65423
Terter,Azerbaijan,40.34179,46.93242
Sumqayıt,Azerbaijan,40.58972,49.66861
Qaraçuxur,Azerbaijan,40.39667,49.97361
Shamkhor,Azerbaijan,40.82975,46.0178
Shamakhi,Azerbaijan,40.63141,48.64137
Sheki,Azerbaijan,41.19194,47.17056
Sabunçu,Azerbaijan,40.4425,49.94806
Sabirabad,Azerbaijan,40.00869,48.47701
Qusar,Azerbaijan,41.4275,48.4302
Quba,Azerbaijan,41.36108,48.51341
Hacıqabul,Azerbaijan,40.03874,48.94286
Qazax,Azerbaijan,41.09246,45.36561
Hacı Zeynalabdin,Azerbaijan,40.62333,49.55861
Mingelchaur,Azerbaijan,40.76395,47.05953
Maştağa,Azerbaijan,40.52983,50.00616
Mardakan,Azerbaijan,40.49182,50.14292
Lökbatan,Azerbaijan,40.3256,49.73376
Kyurdarmir,Azerbaijan,40.34532,48.15085
Khirdalan,Azerbaijan,40.44808,49.75502
Yeni Suraxanı,Azerbaijan,40.43026,50.03598
Geoktschai,Azerbaijan,40.65055,47.74219
Hövsan,Azerbaijan,40.37444,50.08528
Ganja,Azerbaijan,40.68278,46.36056
Divichibazar,Azerbaijan,41.20117,48.98712
Buzovna,Azerbaijan,40.51903,50.11438
Biny Selo,Azerbaijan,40.45076,50.08686
Barda,Azerbaijan,40.37577,47.12619
Bilajari,Azerbaijan,40.4444,49.80566
Baku,Azerbaijan,40.37767,49.89201
Amirdzhan,Azerbaijan,40.42639,49.98361
Aghsu,Azerbaijan,40.57028,48.40087
Ağdaş,Azerbaijan,40.64699,47.4738
Agdzhabedy,Azerbaijan,40.05015,47.45937
Bakıxanov,Azerbaijan,40.41894,49.96693
Zenica,Bosnia and Herzegovina,44.20169,17.90397
Visoko,Bosnia and Herzegovina,43.98889,18.17806
Velika Kladuša,Bosnia and Herzegovina,45.18497,15.80579
Tuzla,Bosnia and Herzegovina,44.53842,18.66709
Trebinje,Bosnia and Herzegovina,42.71197,18.34362
Travnik,Bosnia and Herzegovina,44.22637,17.66583
Sarajevo,Bosnia and Herzegovina,43.84864,18.35644
Prijedor,Bosnia and Herzegovina,44.97991,16.71401
Mostar,Bosnia and Herzegovina,43.34333,17.80806
Gradačac,Bosnia and Herzegovina,44.87851,18.42764
Gračanica,Bosnia and Herzegovina,44.70307,18.3101
Wittenheim,France,47.8078,7.33702
Lākshām,Bangladesh,23.24018,91.12143
Goražde,Bosnia and Herzegovina,43.66795,18.97564
Doboj,Bosnia and Herzegovina,44.73179,18.08698
Orsay,France,48.69572,2.18727
Cazin,Bosnia and Herzegovina,44.96694,15.94306
Bugojno,Bosnia and Herzegovina,44.05722,17.45083
Brčko,Bosnia and Herzegovina,44.86995,18.81012
Bosanska Krupa,Bosnia and Herzegovina,44.8825,16.15139
Bijeljina,Bosnia and Herzegovina,44.75874,19.21437
Bihać,Bosnia and Herzegovina,44.81694,15.87083
Banja Luka,Bosnia and Herzegovina,44.77842,17.19386
Comilla,Bangladesh,23.46186,91.18503
Konjic,Bosnia and Herzegovina,43.65126,17.96082
Bridgetown,Barbados,13.10732,-59.62021
Thākurgaon,Bangladesh,26.03097,88.46989
Teknāf,Bangladesh,20.85829,92.29773
Tungi,Bangladesh,23.89154,90.40232
Sylhet,Bangladesh,24.89904,91.87198
Dohār,Bangladesh,23.59311,90.14251
Jamālpur,Bangladesh,24.91965,89.94812
Shibganj,Bangladesh,24.68501,88.15638
Sātkhira,Bangladesh,22.70817,89.07185
Sirājganj,Bangladesh,24.45771,89.70802
Netrakona,Bangladesh,24.88352,90.72898
Narsingdi,Bangladesh,23.92298,90.71768
Sandwīp,Bangladesh,22.51409,91.45491
Shāhzādpur,Bangladesh,24.17687,89.5988
Rāmganj,Bangladesh,23.1006,90.84989
Rājshāhi,Bangladesh,24.374,88.60114
Pirojpur,Bangladesh,22.57965,89.97521
Panchagarh,Bangladesh,26.33338,88.55777
Patiya,Bangladesh,22.29543,91.979
Parbatipur,Bangladesh,25.66369,88.93093
Nārāyanganj,Bangladesh,23.61352,90.50298
Nālchiti,Bangladesh,22.63696,90.27195
Nāgarpur,Bangladesh,24.05783,89.87696
Nageswari,Bangladesh,25.96817,89.69153
Mymensingh,Bangladesh,24.75636,90.40646
Muktāgācha,Bangladesh,24.76484,90.25698
Mirzāpur,Bangladesh,24.10287,90.09841
Maulavi Bāzār,Bangladesh,24.48888,91.77075
Morrelgonj,Bangladesh,22.45566,89.85584
Mehendiganj,Bangladesh,22.82257,90.52859
Mathba,Bangladesh,22.28616,89.95883
Lalmanirhat,Bangladesh,25.91719,89.44595
Kushtia,Bangladesh,23.9028,89.11943
Kālīganj,Bangladesh,23.40964,89.13801
Jhingergācha,Bangladesh,23.11134,89.09061
Joypur Hāt,Bangladesh,25.10147,89.02734
Ishurdi,Bangladesh,24.12858,89.06573
Habiganj,Bangladesh,24.38044,91.41299
Gaurnadi,Bangladesh,22.97372,90.22376
Gafargaon,Bangladesh,24.432,90.5585
Feni,Bangladesh,23.0144,91.3966
Rāipur,Bangladesh,23.0391,90.76808
Sarankhola,Bangladesh,22.31006,89.79113
Dhaka,Bangladesh,23.7104,90.40744
Chilmāri,Bangladesh,25.55613,89.67097
Chhāgalnāiya,Bangladesh,23.02475,91.51091
Lālmohan,Bangladesh,22.33774,90.73708
Khagrachhari,Bangladesh,23.10787,91.97007
Chhātak,Bangladesh,25.03852,91.66958
Bhātpāra Abhaynagar,Bangladesh,23.01472,89.43936
Bherāmāra,Bangladesh,24.02452,88.99234
Bhairab Bāzār,Bangladesh,24.0524,90.9764
Bāndarban,Bangladesh,22.19534,92.21946
Kālia,Bangladesh,23.043,89.63094
Baniachang,Bangladesh,24.51863,91.35787
Bājitpur,Bangladesh,24.21623,90.95002
Badarganj,Bangladesh,25.67419,89.05377
Narail,Bangladesh,23.15509,89.49515
Tungipāra,Bangladesh,22.89983,89.90326
Sarishābāri,Bangladesh,24.75127,89.83126
Sakhipur,Bangladesh,24.31988,90.16943
Raojān,Bangladesh,22.53511,91.91919
Phultala,Bangladesh,22.71673,89.51194
Pālang,Bangladesh,23.21824,90.35076
Pār Naogaon,Bangladesh,24.80418,88.94875
Nabīnagar,Bangladesh,23.88791,90.96792
Lakshmīpur,Bangladesh,22.9443,90.83005
Kesabpur,Bangladesh,22.90725,89.21954
Hājīganj,Bangladesh,23.25191,90.85508
Farīdpur,Bangladesh,23.60612,89.84064
Uttar Char Fasson,Bangladesh,22.22647,90.71275
Chittagong,Bangladesh,22.3384,91.83168
Char Bhadrāsan,Bangladesh,23.30916,90.22698
Bera,Bangladesh,24.07821,89.63262
Burhānuddin,Bangladesh,22.49518,90.72391
Sātkania,Bangladesh,22.07639,92.04955
Cox’s Bāzār,Bangladesh,21.43973,92.00955
Khulna,Bangladesh,22.80979,89.56439
Bhola,Bangladesh,22.68759,90.64403
Barisāl,Bangladesh,22.70497,90.37013
Jessore,Bangladesh,23.16971,89.21371
Pābna,Bangladesh,24.00644,89.2372
Tāngāil,Bangladesh,24.24984,89.91655
Bogra,Bangladesh,24.85098,89.37108
Pīrgaaj,Bangladesh,25.85587,88.35943
Nawābganj,Bangladesh,24.59025,88.27444
Mādārīpur,Bangladesh,23.17097,90.20935
Kishorganj,Bangladesh,24.43944,90.78291
Manikchari,Bangladesh,22.83957,91.84128
Bhāndāria,Bangladesh,22.48898,90.06273
Fatikchari,Bangladesh,22.68768,91.78123
Saidpur,Bangladesh,25.77769,88.89169
Azimpur,Bangladesh,23.7298,90.3854
Paltan,Bangladesh,23.73625,90.41426
Zwijndrecht,Belgium,51.21979,4.32664
Zwevegem,Belgium,50.81268,3.33848
Zottegem,Belgium,50.86955,3.81052
Zonhoven,Belgium,50.99064,5.36819
Zoersel,Belgium,51.26825,4.71296
Zemst,Belgium,50.98318,4.46079
Zele,Belgium,51.06566,4.0403
Zedelgem,Belgium,51.14236,3.1368
Zaventem,Belgium,50.88365,4.47298
Wuustwezel,Belgium,51.39214,4.59546
Willebroek,Belgium,51.06041,4.36019
Wevelgem,Belgium,50.8,3.16667
Wetteren,Belgium,51.00526,3.88341
Westerlo,Belgium,51.09049,4.91544
Wervik,Belgium,50.78069,3.03854
Wavre,Belgium,50.71717,4.60138
Waterloo,Belgium,50.71469,4.3991
Waregem,Belgium,50.88898,3.42756
Walcourt,Belgium,50.25401,4.43796
Visé,Belgium,50.7376,5.69907
Vilvoorde,Belgium,50.92814,4.42938
Verviers,Belgium,50.58907,5.86241
Turnhout,Belgium,51.32254,4.94471
Tubize,Belgium,50.69059,4.2009
Tournai,Belgium,50.60715,3.38932
Torhout,Belgium,51.0656,3.10085
Tongeren,Belgium,50.78054,5.46484
Tienen,Belgium,50.80745,4.9378
Tielt,Belgium,50.99931,3.32707
Tessenderlo,Belgium,51.06513,5.08856
Tervuren,Belgium,50.82372,4.51418
Temse,Belgium,51.12794,4.21372
Stekene,Belgium,51.2099,4.03651
Stabroek,Belgium,51.33189,4.37127
Soumagne,Belgium,50.61385,5.74679
Soignies,Belgium,50.57904,4.07129
Sint-Truiden,Belgium,50.81679,5.18647
Sint-Pieters-Leeuw,Belgium,50.77926,4.24355
Sint-Niklaas,Belgium,51.16509,4.1437
Sint-Kruis,Belgium,51.21399,3.24949
Sint-Katelijne-Waver,Belgium,51.06691,4.53469
Sint-Gillis-Waas,Belgium,51.21914,4.12374
Sint-Genesius-Rode,Belgium,50.74645,4.35754
Seraing,Belgium,50.58362,5.50115
Schoten,Belgium,51.25251,4.50268
Schilde,Belgium,51.24107,4.58336
Saint-Nicolas,Belgium,50.62837,5.53243
Saint-Ghislain,Belgium,50.44816,3.81886
Rotselaar,Belgium,50.95302,4.71665
Ronse,Belgium,50.74574,3.6005
Roeselare,Belgium,50.94653,3.12269
Rixensart,Belgium,50.71229,4.52529
Riemst,Belgium,50.80995,5.60131
Ranst,Belgium,51.18983,4.56533
Quaregnon,Belgium,50.44067,3.8653
Puurs,Belgium,51.07409,4.28844
Putte,Belgium,51.05337,4.63263
Poperinge,Belgium,50.85386,2.72659
Pont-à-Celles,Belgium,50.50518,4.36887
Péruwelz,Belgium,50.50819,3.59373
Peer,Belgium,51.1303,5.45952
Overijse,Belgium,50.77436,4.53461
Oupeye,Belgium,50.71184,5.6468
Oudenaarde,Belgium,50.85168,3.60891
Oostkamp,Belgium,51.15432,3.23128
Ostend,Belgium,51.21551,2.927
Nivelles,Belgium,50.59833,4.32848
Ninove,Belgium,50.82776,4.02657
Nijlen,Belgium,51.16096,4.67008
Neerpelt,Belgium,51.22807,5.4427
Namur,Belgium,50.4669,4.86746
Mouscron,Belgium,50.74497,3.20639
Mortsel,Belgium,51.16697,4.45127
Morlanwelz-Mariemont,Belgium,50.45502,4.24519
Mons,Belgium,50.45413,3.95229
Mol,Belgium,51.19188,5.11662
Middelkerke,Belgium,51.18532,2.82077
Merelbeke,Belgium,50.99447,3.74621
Menen,Belgium,50.79722,3.12245
Meise,Belgium,50.93934,4.32655
Mechelen,Belgium,51.02574,4.47762
Marche-en-Famenne,Belgium,50.22678,5.34416
Manage,Belgium,50.50312,4.23589
Maldegem,Belgium,51.20737,3.44511
Maasmechelen,Belgium,50.96545,5.69452
Maaseik,Belgium,51.09802,5.78379
Louvain-la-Neuve,Belgium,50.66829,4.61443
Londerzeel,Belgium,51.00468,4.30304
Lommel,Belgium,51.23074,5.31349
Lokeren,Belgium,51.10364,3.99339
Lochristi,Belgium,51.09644,3.83194
Lille,Belgium,51.24197,4.82313
Lier,Belgium,51.13128,4.57041
Liège,Belgium,50.63373,5.56749
Leuven,Belgium,50.87959,4.70093
Lessines,Belgium,50.71104,3.83579
Lede,Belgium,50.96626,3.98594
Lebbeke,Belgium,51.00464,4.13457
Lanaken,Belgium,50.89318,5.6468
La Louvière,Belgium,50.48657,4.18785
Kortrijk,Belgium,50.82803,3.26487
Kortenberg,Belgium,50.88982,4.54353
Kontich,Belgium,51.13213,4.44706
Koksijde,Belgium,51.11642,2.63772
Kasterlee,Belgium,51.24118,4.96651
Kapellen,Belgium,51.31377,4.43539
Kalmthout,Belgium,51.38442,4.47556
Izegem,Belgium,50.91396,3.21378
Ieper,Belgium,50.85114,2.88569
Huy,Belgium,50.51894,5.23284
Houthalen,Belgium,51.03427,5.37429
Hoogstraten,Belgium,51.40029,4.76034
Hoboken,Belgium,51.17611,4.34844
Heusden,Belgium,51.03664,5.28013
Herzele,Belgium,50.88681,3.89014
Herve,Belgium,50.64083,5.79353
Herstal,Belgium,50.66415,5.62346
Herentals,Belgium,51.17655,4.83248
Herent,Belgium,50.90861,4.67056
Helchteren,Belgium,51.05591,5.38244
Heist-op-den-Berg,Belgium,51.07537,4.72827
Hasselt,Belgium,50.93106,5.33781
Harelbeke,Belgium,50.85343,3.30935
Hamme,Belgium,51.09822,4.13705
Halle,Belgium,50.73385,4.23454
Haaltert,Belgium,50.90634,4.00093
Grimbergen,Belgium,50.93409,4.37213
Geraardsbergen,Belgium,50.77343,3.88223
Gent,Belgium,51.05,3.71667
Genk,Belgium,50.965,5.50082
Gembloux,Belgium,50.56149,4.69889
Geel,Belgium,51.16557,4.98917
Frameries,Belgium,50.40578,3.89603
Fleurus,Belgium,50.48351,4.55006
Fléron,Belgium,50.61516,5.68062
Flémalle-Haute,Belgium,50.59994,5.44471
Evergem,Belgium,51.10529,3.704
Eupen,Belgium,50.6279,6.03647
Essen,Belgium,51.46791,4.46901
Eeklo,Belgium,51.18703,3.55654
Edegem,Belgium,51.15662,4.44504
Duffel,Belgium,51.09554,4.50903
Dour,Belgium,50.39583,3.77792
Dilbeek,Belgium,50.84799,4.25972
Diksmuide,Belgium,51.03248,2.86384
Diest,Belgium,50.98923,5.05062
Diepenbeek,Belgium,50.90769,5.41875
Destelbergen,Belgium,51.05952,3.79899
Dendermonde,Belgium,51.02869,4.10106
Denderleeuw,Belgium,50.88506,4.07601
Deinze,Belgium,50.98175,3.53096
Courcelles,Belgium,50.46379,4.3747
Colfontaine,Belgium,50.4141,3.85569
Chaudfontaine,Belgium,50.5828,5.6341
Châtelet,Belgium,50.40338,4.52826
Chasse Royale,Belgium,50.42842,3.95001
Charleroi,Belgium,50.41136,4.44448
Brussels,Belgium,50.85045,4.34878
Brugge,Belgium,51.20892,3.22424
Brecht,Belgium,51.35024,4.63829
Brasschaat,Belgium,51.2912,4.49182
Braine-le-Comte,Belgium,50.60979,4.14658
Braine-l'Alleud,Belgium,50.68363,4.36784
Boussu,Belgium,50.43417,3.7944
Bornem,Belgium,51.09716,4.24364
Boom,Belgium,51.09242,4.3717
Blankenberge,Belgium,51.31306,3.13227
Binche,Belgium,50.41155,4.16469
Bilzen,Belgium,50.87325,5.5184
Beveren,Belgium,51.21187,4.25633
Beringen,Belgium,51.04954,5.22606
Beersel,Belgium,50.76589,4.3002
Beerse,Belgium,51.31927,4.85304
Balen,Belgium,51.16837,5.17027
Ath,Belgium,50.62937,3.77801
Asse,Belgium,50.91011,4.19836
Arlon,Belgium,49.68333,5.81667
Antwerpen,Belgium,51.21989,4.40346
Ans,Belgium,50.6623,5.52029
Andenne,Belgium,50.48941,5.09513
Aarschot,Belgium,50.98715,4.83695
Aalter,Belgium,51.09017,3.44693
Aalst,Belgium,50.93604,4.0355
Zorgo,Burkina Faso,12.24922,-0.61527
Yako,Burkina Faso,12.9591,-2.26075
Tougan,Burkina Faso,13.0725,-3.0694
Titao,Burkina Faso,13.76667,-2.06667
Tenkodogo,Burkina Faso,11.78,-0.36972
Réo,Burkina Faso,12.31963,-2.47094
Pô,Burkina Faso,11.16972,-1.145
Ouahigouya,Burkina Faso,13.58278,-2.42158
Ouagadougou,Burkina Faso,12.36566,-1.53388
Nouna,Burkina Faso,12.72939,-3.86305
Manga,Burkina Faso,11.66361,-1.07306
Léo,Burkina Faso,11.10033,-2.10654
Koupéla,Burkina Faso,12.17864,-0.35103
Koudougou,Burkina Faso,12.25263,-2.36272
Kongoussi,Burkina Faso,13.32583,-1.53472
Kombissiri,Burkina Faso,12.06095,-1.33355
Kokologo,Burkina Faso,12.18972,-1.88556
Kaya,Burkina Faso,13.09167,-1.08444
Houndé,Burkina Faso,11.5,-3.51667
Gourcy,Burkina Faso,13.20776,-2.35893
Garango,Burkina Faso,11.8,-0.55056
Fada N'gourma,Burkina Faso,12.06157,0.35843
Dori,Burkina Faso,14.0354,-0.0345
Djibo,Burkina Faso,14.0994,-1.62554
Diapaga,Burkina Faso,12.07305,1.78838
Dédougou,Burkina Faso,12.46338,-3.46075
Boussé,Burkina Faso,12.6576,-1.89288
Boulsa,Burkina Faso,12.66664,-0.57469
Bobo-Dioulasso,Burkina Faso,11.17715,-4.2979
Banfora,Burkina Faso,10.63333,-4.76667
Gaoua,Burkina Faso,10.29917,-3.25083
Orodara,Burkina Faso,10.94917,-4.93417
Yambol,Bulgaria,42.48333,26.5
Vratsa,Bulgaria,43.21,23.5625
Vidin,Bulgaria,43.99,22.8725
Velingrad,Bulgaria,42.02754,23.99155
Veliko Tŭrnovo,Bulgaria,43.08124,25.62904
Varna,Bulgaria,43.21667,27.91667
Targovishte,Bulgaria,43.2512,26.57215
Troyan,Bulgaria,42.89427,24.71589
Dobrich,Bulgaria,43.56667,27.83333
Svishtov,Bulgaria,43.61959,25.35044
Svilengrad,Bulgaria,41.76667,26.2
Stara Zagora,Bulgaria,42.43278,25.64194
Dupnitsa,Bulgaria,42.26667,23.11667
Sofia,Bulgaria,42.69751,23.32415
Smolyan,Bulgaria,41.58528,24.69194
Sliven,Bulgaria,42.68583,26.32917
Silistra,Bulgaria,44.11667,27.26667
Shumen,Bulgaria,43.27064,26.92286
Sevlievo,Bulgaria,43.02583,25.11361
Sandanski,Bulgaria,41.56667,23.28333
Samokov,Bulgaria,42.337,23.5528
Ruse,Bulgaria,43.85639,25.97083
Razgrad,Bulgaria,43.53333,26.51667
Rakovski,Bulgaria,42.3,24.96667
Popovo,Bulgaria,43.35,26.23333
Plovdiv,Bulgaria,42.15,24.75
Pleven,Bulgaria,43.41667,24.61667
Petrich,Bulgaria,41.39846,23.20702
Peshtera,Bulgaria,42.03333,24.3
Pernik,Bulgaria,42.6,23.03333
Pazardzhik,Bulgaria,42.2,24.33333
Panagyurishte,Bulgaria,42.5,24.18333
Nova Zagora,Bulgaria,42.48333,26.01667
Montana,Bulgaria,43.4125,23.225
Lovech,Bulgaria,43.13333,24.71667
Lom,Bulgaria,43.81389,23.23611
Kyustendil,Bulgaria,42.28389,22.69111
Kardzhali,Bulgaria,41.65,25.36667
Haskovo,Bulgaria,41.93415,25.55557
Harmanli,Bulgaria,41.93333,25.9
Kazanlak,Bulgaria,42.61667,25.4
Karnobat,Bulgaria,42.65,26.98333
Karlovo,Bulgaria,42.63333,24.8
Gotse Delchev,Bulgaria,41.56667,23.73333
Gorna Oryahovitsa,Bulgaria,43.12778,25.70167
Gabrovo,Bulgaria,42.87472,25.33417
Kokkola,Finland,63.83847,23.13066
Dimitrovgrad,Bulgaria,42.05,25.6
Chirpan,Bulgaria,42.2,25.33333
Cherven Bryag,Bulgaria,43.26667,24.1
Burgas,Bulgaria,42.50606,27.46781
Botevgrad,Bulgaria,42.9,23.78333
Blagoevgrad,Bulgaria,42.01667,23.1
Berkovitsa,Bulgaria,43.23611,23.12583
Aytos,Bulgaria,42.7,27.25
Asenovgrad,Bulgaria,42.01667,24.86667
Sitrah,Bahrain,26.15472,50.62056
Madīnat ‘Īsá,Bahrain,26.17361,50.54778
Jidd Ḩafş,Bahrain,26.21861,50.54778
Madīnat Ḩamad,Bahrain,26.11528,50.50694
Dār Kulayb,Bahrain,26.06861,50.50389
Al Muharraq,Bahrain,26.25722,50.61194
Manama,Bahrain,26.22787,50.58565
Ar Rifā‘,Bahrain,26.13,50.555
Makamba,Burundi,-4.1348,29.804
Bururi,Burundi,-3.94877,29.62438
Bujumbura,Burundi,-3.3822,29.3644
Muramvya,Burundi,-3.2682,29.6079
Gitega,Burundi,-3.4264,29.9308
Ruyigi,Burundi,-3.47639,30.24861
Ngozi,Burundi,-2.9075,29.8306
Kayanza,Burundi,-2.9221,29.6293
Muyinga,Burundi,-2.8451,30.3414
Rutana,Burundi,-3.9279,29.992
Tchaourou,Benin,8.88649,2.59753
Tanguiéta,Benin,10.62118,1.26651
Savé,Benin,8.03424,2.4866
Savalou,Benin,7.92807,1.97558
Sakété,Benin,6.73618,2.65866
Porto-Novo,Benin,6.49646,2.60359
Pobé,Benin,6.98008,2.6649
Parakou,Benin,9.33716,2.63031
Ouidah,Benin,6.36307,2.08506
Nikki,Benin,9.94009,3.21075
Natitingou,Benin,10.30416,1.37962
Malanville,Benin,11.86819,3.38327
Lokossa,Benin,6.63869,1.71674
Kétou,Benin,7.36332,2.59978
Kandi,Benin,11.13417,2.93861
Dogbo,Benin,6.81667,1.78333
Djougou,Benin,9.70853,1.66598
Dassa-Zoumé,Benin,7.75,2.18333
Cové,Benin,7.22097,2.34017
Cotonou,Benin,6.36536,2.41833
Comé,Benin,6.40764,1.88198
Bohicon,Benin,7.17826,2.0667
Bembèrèkè,Benin,10.22827,2.66335
Bassila,Benin,9.00814,1.6654
Banikoara,Benin,11.29845,2.43856
Aplahoué,Benin,6.93333,1.68333
Allada,Benin,6.66547,2.15138
Abomey-Calavi,Benin,6.44852,2.35566
Abomey,Benin,7.18286,1.99119
Gustavia,,17.89618,-62.84978
Hamilton,Bermuda,32.2949,-64.78303
Tutong,Brunei,4.8,114.65
Seria,Brunei,4.60637,114.32476
Kuala Belait,Brunei,4.58361,114.2312
Bandar Seri Begawan,Brunei,4.94029,114.94806
Yacuiba,Bolivia,-22.01643,-63.67753
Warnes,Bolivia,-17.5163,-63.16778
Villazón,Bolivia,-22.08659,-65.59422
Villa Yapacaní,Bolivia,-17.4,-63.83333
Villamontes,Bolivia,-21.26235,-63.46903
Tupiza,Bolivia,-21.44345,-65.71875
Trinidad,Bolivia,-14.83333,-64.9
Tarija,Bolivia,-21.53549,-64.72956
Sucre,Bolivia,-19.03332,-65.26274
Santiago del Torno,Bolivia,-17.98674,-63.38118
Santa Cruz de la Sierra,Bolivia,-17.78629,-63.18117
San Ignacio de Velasco,Bolivia,-16.36667,-60.95
San Borja,Bolivia,-14.81667,-66.85
Riberalta,Bolivia,-11.00654,-66.06312
Punata,Bolivia,-17.54234,-65.83472
Potosí,Bolivia,-19.58361,-65.75306
Oruro,Bolivia,-17.98333,-67.15
Montero,Bolivia,-17.33866,-63.2505
Mizque,Bolivia,-17.94101,-65.34016
Llallagua,Bolivia,-18.42426,-66.58388
La Paz,Bolivia,-16.5,-68.15
Huanuni,Bolivia,-18.289,-66.83583
Guayaramerín,Bolivia,-10.83676,-65.36136
Cotoca,Bolivia,-17.81667,-63.05
Cochabamba,Bolivia,-17.3895,-66.1568
Cobija,Bolivia,-11.02671,-68.76918
Camiri,Bolivia,-20.03849,-63.51833
Kralendijk,,12.15,-68.26667
Vitória do Mearim,Brazil,-3.46222,-44.87056
Vitória de Santo Antão,Brazil,-8.11806,-35.29139
Viseu,Brazil,-1.19667,-46.14
Conde,Brazil,-7.25972,-34.9075
Vigia,Brazil,-0.85833,-48.14167
Viçosa do Ceará,Brazil,-3.56222,-41.09222
Viçosa,Brazil,-9.37139,-36.24083
Viana,Brazil,-3.22028,-45.00361
Várzea Alegre,Brazil,-5.35,-40.38333
Varjota,Brazil,-4.19444,-40.47667
Vargem Grande,Brazil,-3.54306,-43.91583
Valença do Piauí,Brazil,-6.4075,-41.74556
União dos Palmares,Brazil,-9.16278,-36.03194
União,Brazil,-4.58583,-42.86417
Tuntum,Brazil,-5.25806,-44.64889
Tucuruí,Brazil,-3.76585,-49.67923
Tucumã,Brazil,-0.18333,-50.05
Trindade,Brazil,-7.76194,-40.26778
Trairi,Brazil,-3.27778,-39.26889
Toritama,Brazil,-8.00667,-36.05667
Tomé Açu,Brazil,-2.41889,-48.15222
Timon,Brazil,-5.09417,-42.83667
Timbiras,Brazil,-4.25528,-43.94056
Timbaúba,Brazil,-7.50528,-35.31833
Tianguá,Brazil,-3.73222,-40.99167
Teresina,Brazil,-5.08917,-42.80194
São João dos Inhamuns,Brazil,-6,-40.28333
Tamandaré,Brazil,-8.75632,-35.09995
Tabira,Brazil,-7.59083,-37.53944
Surubim,Brazil,-7.83306,-35.75472
Sousa,Brazil,-6.75917,-38.22806
Soure,Brazil,-0.71667,-48.52333
Solânea,Brazil,-6.755,-35.54
Sobral,Brazil,-3.68611,-40.34972
Sirinhaém,Brazil,-8.59083,-35.11611
Sertânia,Brazil,-8.07361,-37.26444
Serra Talhada,Brazil,-7.99194,-38.29833
Senador Pompeu,Brazil,-5.58806,-39.37167
Satuba,Brazil,-9.56333,-35.82444
São Raimundo Nonato,Brazil,-9.01528,-42.69944
São Miguel dos Campos,Brazil,-9.78111,-36.09361
São Miguel do Guamá,Brazil,-1.62667,-47.48333
São Mateus do Maranhão,Brazil,-4.04167,-44.475
São Luís do Quitunde,Brazil,-9.31833,-35.56111
São Luís,Brazil,-2.52972,-44.30278
São Lourenço da Mata,Brazil,-8.00222,-35.01833
São José do Egito,Brazil,-7.47889,-37.27444
São José de Mipibu,Brazil,-6.07472,-35.23778
São João dos Patos,Brazil,-6.495,-43.70222
São Gonçalo do Amarante,Brazil,-3.60722,-38.96833
São Félix do Xingu,Brazil,-6.64472,-51.995
São Domingos do Maranhão,Brazil,-5.57583,-44.38528
São Bento,Brazil,-6.28333,-37.75
São Bento,Brazil,-2.69583,-44.82139
Santa Rita,Brazil,-7.11389,-34.97806
Santarém,Brazil,-2.44306,-54.70833
Santa Quitéria do Maranhão,Brazil,-3.51556,-42.54667
Santa Quitéria,Brazil,-4.33194,-40.15667
Santana do Ipanema,Brazil,-9.37833,-37.24528
Santa Luzia,Brazil,-7.64265,-47.21738
Santa Inês,Brazil,-3.66667,-45.38
Santa Helena,Brazil,-2.23111,-45.3
Santa Cruz do Capibaribe,Brazil,-7.9575,-36.20472
Santa Cruz,Brazil,-6.22944,-36.02278
Salgueiro,Brazil,-8.07417,-39.11917
Russas,Brazil,-4.94028,-37.97583
Rio Largo,Brazil,-9.47833,-35.85333
Rio Formoso,Brazil,-8.66877,-35.16277
Ribeirão,Brazil,-8.51444,-35.37778
Recife,Brazil,-8.05389,-34.88111
Quixeramobim,Brazil,-5.19917,-39.29278
Quixadá,Brazil,-4.97139,-39.01528
Presidente Dutra,Brazil,-5.29,-44.49
Porto Calvo,Brazil,-9.045,-35.39833
Portel,Brazil,-1.93556,-50.82111
Pombos,Brazil,-8.14139,-35.39583
Pombal,Brazil,-6.77028,-37.80167
Piripiri,Brazil,-4.27333,-41.77694
Piracuruca,Brazil,-3.92806,-41.70917
Pinheiro,Brazil,-2.52139,-45.0825
Pindaré Mirim,Brazil,-3.60833,-45.34333
Pilar,Brazil,-9.59722,-35.95667
Picos,Brazil,-7.07694,-41.46694
Petrolina,Brazil,-9.39861,-40.50083
Jatobá,Brazil,-9.18306,-38.26889
Pesqueira,Brazil,-8.35778,-36.69639
Pentecoste,Brazil,-3.79278,-39.27028
Penalva,Brazil,-3.29417,-45.17361
Pedro II,Brazil,-4.42472,-41.45861
Pedra Branca,Brazil,-5.45417,-39.71722
Paulo Afonso,Brazil,-9.40611,-38.21472
Paulista,Brazil,-7.94083,-34.87306
Patos,Brazil,-7.02444,-37.28
Parnamirim,Brazil,-5.91556,-35.26278
Parnaíba,Brazil,-2.90472,-41.77667
Parintins,Brazil,-2.62833,-56.73583
Parelhas,Brazil,-6.68778,-36.6575
Paraipaba,Brazil,-3.43944,-39.14833
Paragominas,Brazil,-2.96667,-47.48333
Paracuru,Brazil,-3.41,-39.03056
Palmares,Brazil,-8.68333,-35.59167
Pacatuba,Brazil,-3.98417,-38.62028
Pacajus,Brazil,-4.1725,-38.46056
Ouricuri,Brazil,-7.8825,-40.08167
Orós,Brazil,-6.24444,-38.91361
Oriximiná,Brazil,-1.76556,-55.86611
Olinda,Brazil,-8.00889,-34.85528
Oeiras,Brazil,-7.02528,-42.13111
Ábidos,Brazil,-1.9175,-55.51806
Nova Russas,Brazil,-4.70667,-40.56306
Nova Cruz,Brazil,-6.47806,-35.43389
Nazaré da Mata,Brazil,-7.74167,-35.22778
Natal,Brazil,-5.795,-35.20944
Murici,Brazil,-9.30667,-35.94333
Moreno,Brazil,-8.11861,-35.09222
Morada Nova,Brazil,-5.10667,-38.3725
Monteiro,Brazil,-7.88944,-37.12
Monte Alegre,Brazil,-2.00082,-54.08102
Mombaça,Brazil,-5.74306,-39.6275
Moju,Brazil,-1.88389,-48.76889
Mossoró,Brazil,-5.1875,-37.34417
Mocajuba,Brazil,-2.58417,-49.50722
Maués,Brazil,-3.38361,-57.71861
Matriz de Camaragibe,Brazil,-9.15167,-35.53333
Mari,Brazil,-7.06,-35.31944
Marechal Deodoro,Brazil,-9.71028,-35.895
Maragogi,Brazil,-9.01222,-35.2225
Maracanaú,Brazil,-3.87667,-38.62556
Marabá,Brazil,-5.38146,-49.13232
Mamanguape,Brazil,-6.83861,-35.12611
Maceió,Brazil,-9.66583,-35.73528
Macau,Brazil,-5.115,-36.63444
Macapá,Brazil,0.03889,-51.06639
Macaíba,Brazil,-5.85833,-35.35389
Limoeiro do Norte,Brazil,-5.14556,-38.09806
Limoeiro,Brazil,-7.87472,-35.45028
Lavras da Mangabeira,Brazil,-6.75333,-38.96444
Lajedo,Brazil,-8.66361,-36.32
Lago da Pedra,Brazil,-4.28674,-45.23824
Lagoa do Itaenga,Brazil,-7.93611,-35.29028
Juazeiro do Norte,Brazil,-7.21306,-39.31528
José de Freitas,Brazil,-4.75639,-42.57556
João Pessoa,Brazil,-7.115,-34.86306
João Câmara,Brazil,-5.5375,-35.81972
Jaguaruana,Brazil,-4.83389,-37.78111
Jaguaribe,Brazil,-5.89056,-38.62194
Jaboatão,Brazil,-8.18028,-35.00139
Itupiranga,Brazil,-5.13472,-49.32667
Itacoatiara,Brazil,-3.14306,-58.44417
Itaporanga,Brazil,-7.30444,-38.15028
Itapissuma,Brazil,-7.77639,-34.89222
Itapipoca,Brazil,-3.49444,-39.57861
Itapecuru Mirim,Brazil,-3.3925,-44.35861
Itapagé,Brazil,-3.68667,-39.58611
Itaituba,Brazil,-4.27611,-55.98361
Itaitinga,Brazil,-3.96944,-38.52806
Itabaiana,Brazil,-7.32861,-35.3325
Ipueiras,Brazil,-7.03333,-40.45
Ipubi,Brazil,-7.65194,-40.14889
Ipu,Brazil,-4.32222,-40.71083
Ipojuca,Brazil,-8.39889,-35.06389
Imperatriz,Brazil,-5.52639,-47.49167
Iguatu,Brazil,-6.35944,-39.29861
Igarapé Miri,Brazil,-1.975,-48.95972
Igarapé Açu,Brazil,-1.12889,-47.62
Igarassu,Brazil,-7.83417,-34.90639
Icó,Brazil,-6.40111,-38.86222
Horizonte,Brazil,-4.1,-38.48333
Guaraciaba do Norte,Brazil,-4.16694,-40.7475
Guarabira,Brazil,-6.85472,-35.49
Guaiúba,Brazil,-4.03972,-38.63722
Gravatá,Brazil,-8.20111,-35.56472
Granja,Brazil,-3.12028,-40.82611
Grajaú,Brazil,-5.81944,-46.13861
Goiana,Brazil,-7.56056,-35.0025
Glória do Goitá,Brazil,-8.00167,-35.29278
Garanhuns,Brazil,-8.88202,-36.50216
Gameleira,Brazil,-8.58444,-35.38667
Fortaleza,Brazil,-3.71722,-38.54306
Floriano,Brazil,-6.76694,-43.0225
Floresta,Brazil,-8.60111,-38.56861
Eusébio,Brazil,-3.89,-38.45056
Extremoz,Brazil,-5.70556,-35.30722
Estreito,Brazil,-5.78333,-43.25
Esperantina,Brazil,-3.90167,-42.23361
Esperança,Brazil,-7.03306,-35.85722
Escada,Brazil,-8.35917,-35.22361
Dom Pedro,Brazil,-5.03749,-44.43857
Demerval Lobão,Brazil,-5.35833,-42.67639
Delmiro Gouveia,Brazil,-9.38861,-37.99917
Custódia,Brazil,-8.0875,-37.64306
Cururupu,Brazil,-1.82833,-44.86833
Currais Novos,Brazil,-6.26083,-36.51778
Cupira,Brazil,-8.61667,-35.95
Crato,Brazil,-7.23417,-39.40944
Crateús,Brazil,-5.17833,-40.6775
Coroatá,Brazil,-4.13,-44.12417
Condado,Brazil,-7.58583,-35.10583
Conceição do Araguaia,Brazil,-8.26441,-49.26982
Colinas,Brazil,-6.02583,-44.24917
Coelho Neto,Brazil,-4.25667,-43.01278
Codó,Brazil,-4.45528,-43.88556
Chapadinha,Brazil,-3.74167,-43.36028
Chã Grande,Brazil,-8.23833,-35.46167
Ceará Mirim,Brazil,-5.63444,-35.42556
Caxias,Brazil,-4.85889,-43.35611
Caucaia,Brazil,-3.73611,-38.65306
Catolé do Rocha,Brazil,-6.34389,-37.74667
Catende,Brazil,-8.66667,-35.71667
Castanhal,Brazil,-1.29389,-47.92639
Cascavel,Brazil,-4.13306,-38.24194
Caruaru,Brazil,-8.28333,-35.97611
Carpina,Brazil,-7.85083,-35.25472
Carolina,Brazil,-7.33561,-47.46218
Capitão Poço,Brazil,-1.74639,-47.05944
Capanema,Brazil,-1.19583,-47.18083
Canindé,Brazil,-4.35889,-39.31167
Canguaretama,Brazil,-6.38,-35.12889
Campos Sales,Brazil,-7.07444,-40.37611
Campo Maior,Brazil,-4.82778,-42.16861
Campo Alegre,Brazil,-9.78194,-36.35083
Campina Grande,Brazil,-7.23056,-35.88111
Camocim,Brazil,-2.90222,-40.84111
Cametá,Brazil,-2.24444,-49.49583
Cajueiro,Brazil,-9.71667,-36.45
Cajazeiras,Brazil,-6.89028,-38.55528
Caicó,Brazil,-6.45833,-37.09778
Cabrobó,Brazil,-8.51417,-39.31
Cabo,Brazil,-8.28333,-35.03333
Cabedelo,Brazil,-6.98111,-34.83389
Buriti Bravo,Brazil,-5.83722,-43.83361
Buíque,Brazil,-8.62306,-37.15583
Breves,Brazil,-1.68222,-50.48028
Brejo Santo,Brazil,-7.49333,-38.98722
Brejo da Madre de Deus,Brazil,-8.14583,-36.37111
Bragança,Brazil,-1.05361,-46.76556
Bom Conselho,Brazil,-9.16972,-36.67972
Boa Viagem,Brazil,-5.1275,-39.73222
Bezerros,Brazil,-8.23333,-35.79694
Benevides,Brazil,-1.36139,-48.24472
Belo Jardim,Brazil,-8.33556,-36.42417
Belém,Brazil,-6.69167,-35.53333
Belém,Brazil,-1.45583,-48.50444
Beberibe,Brazil,-4.17972,-38.13056
Bayeux,Brazil,-7.125,-34.93222
Baturité,Brazil,-4.32861,-38.88472
Barreiros,Brazil,-8.81833,-35.18639
Barreirinhas,Brazil,-2.75556,-42.82591
Barras,Brazil,-4.24444,-42.29444
Barra do Corda,Brazil,-5.50308,-45.23693
Barcarena,Brazil,-1.50583,-48.62583
Barbalha,Brazil,-7.31111,-39.30417
Balsas,Brazil,-7.5325,-46.03556
Bacabal,Brazil,-4.29167,-44.79167
Augusto Corrêa,Brazil,-1.02167,-46.635
Atalaia,Brazil,-9.50194,-36.02278
Areia Branca,Brazil,-4.95611,-37.13694
Arcoverde,Brazil,-8.41889,-37.05389
Araripina,Brazil,-7.57611,-40.49833
Arari,Brazil,-3.45361,-44.78
Arapiraca,Brazil,-9.7525,-36.66111
Araguaína,Brazil,-7.19111,-48.20722
Aracati,Brazil,-4.56167,-37.76972
Aquiraz,Brazil,-3.90139,-38.39111
Apodi,Brazil,-5.66417,-37.79889
Ananindeua,Brazil,-1.36556,-48.37222
Amaraji,Brazil,-8.38306,-35.4525
Altos,Brazil,-5.03806,-42.46
Altamira,Brazil,-3.20333,-52.20639
Almeirim,Brazil,-1.52333,-52.58167
Alenquer,Brazil,-1.94167,-54.73833
Alagoa Grande,Brazil,-7.15833,-35.63
Águas Belas,Brazil,-9.11139,-37.12306
Água Preta,Brazil,-8.7075,-35.53056
Afogados da Ingazeira,Brazil,-7.75083,-37.63917
Açu,Brazil,-5.57667,-36.90861
Acopiara,Brazil,-6.09528,-39.4525
Acaraú,Brazil,-2.88556,-40.12
Abreu e Lima,Brazil,-7.91167,-34.90278
Abaetetuba,Brazil,-1.71806,-48.8825
Xique Xique,Brazil,-10.82294,-42.72815
Xanxerê,Brazil,-26.87694,-52.40417
Votuporanga,Brazil,-20.42278,-49.97278
Votorantim,Brazil,-23.54667,-47.43778
Volta Redonda,Brazil,-22.52306,-44.10417
Vitória da Conquista,Brazil,-14.86611,-40.83944
Vitória,Brazil,-20.31944,-40.33778
Visconde do Rio Branco,Brazil,-21.01028,-42.84056
Viradouro,Brazil,-20.87306,-48.29694
Vinhedo,Brazil,-23.02972,-46.97528
Vila Velha,Brazil,-20.32972,-40.2925
Videira,Brazil,-27.00833,-51.15167
Viçosa,Brazil,-20.75389,-42.88194
Viana,Brazil,-20.39028,-40.49611
Viamão,Brazil,-30.08111,-51.02333
Vespasiano,Brazil,-19.69194,-43.92333
Veranópolis,Brazil,-28.93611,-51.54944
Vera Cruz,Brazil,-12.63333,-41.03333
Wenceslau Braz,Brazil,-23.87389,-49.80278
Venâncio Aires,Brazil,-29.60639,-52.19194
Vazante,Brazil,-17.98694,-46.90778
Vassouras,Brazil,-22.40389,-43.6625
Várzea Paulista,Brazil,-23.21139,-46.82833
Várzea Grande,Brazil,-15.64667,-56.1325
Várzea da Palma,Brazil,-17.5976,-44.73367
Varginha,Brazil,-21.55139,-45.43028
Vargem Grande do Sul,Brazil,-21.83222,-46.89361
Valparaíso,Brazil,-21.22778,-50.86833
Valinhos,Brazil,-22.97056,-46.99583
Valença,Brazil,-22.24556,-43.70028
Valença,Brazil,-13.37028,-39.07306
Vacaria,Brazil,-28.51222,-50.93389
Uruguaiana,Brazil,-29.75472,-57.08833
Uruçuca,Brazil,-14.59306,-39.28444
Uruaçu,Brazil,-14.52472,-49.14083
União da Vitória,Brazil,-26.23,-51.08639
Unaí,Brazil,-16.3575,-46.90611
Una,Brazil,-15.29333,-39.07528
Umuarama,Brazil,-23.76639,-53.325
Uberlândia,Brazil,-18.91861,-48.27722
Uberaba,Brazil,-19.74833,-47.93194
Ubatuba,Brazil,-23.43389,-45.07111
Ubatã,Brazil,-14.20906,-39.52641
Ubaitaba,Brazil,-14.3125,-39.32333
Ubá,Brazil,-21.12,-42.94278
Tupanciretã,Brazil,-29.08056,-53.83583
Tupaciguara,Brazil,-18.59222,-48.705
Tupã,Brazil,-21.93472,-50.51361
Tucano,Brazil,-10.95817,-38.79084
Tubarão,Brazil,-28.46667,-49.00694
Trindade,Brazil,-16.64944,-49.48889
Três Rios,Brazil,-22.11667,-43.20917
Três Pontas,Brazil,-21.36667,-45.5125
Três Passos,Brazil,-27.45556,-53.93194
Três Lagoas,Brazil,-20.78765,-51.70338
Três de Maio,Brazil,-27.77333,-54.24
Três Coroas,Brazil,-29.51694,-50.77778
Três Corações,Brazil,-21.69694,-45.25333
Tremembé,Brazil,-22.95833,-45.54944
Tramandaí,Brazil,-29.98472,-50.13361
Torres,Brazil,-29.33528,-49.72694
Toledo,Brazil,-24.71361,-53.74306
Tobias Barreto,Brazil,-11.18389,-37.99833
Timóteo,Brazil,-19.58106,-42.64953
Timbó,Brazil,-26.82333,-49.27167
Tijucas,Brazil,-27.24139,-48.63361
Tietê,Brazil,-23.10194,-47.71472
Teutônia,Brazil,-29.44806,-51.80639
Teresópolis,Brazil,-22.4167,-42.97822
Teófilo Otoni,Brazil,-17.8575,-41.50528
Teodoro Sampaio,Brazil,-22.5325,-52.1675
Telêmaco Borba,Brazil,-24.32389,-50.61556
Taubaté,Brazil,-23.02639,-45.55528
Tatuí,Brazil,-23.35556,-47.85694
Taquarituba,Brazil,-23.53306,-49.24444
Taquaritinga,Brazil,-21.40611,-48.50472
Taquari,Brazil,-29.79972,-51.86444
Taquara,Brazil,-29.65056,-50.78056
Tapiramutá,Brazil,-11.84722,-40.79139
Tapes,Brazil,-30.67333,-51.39583
Tanguá,Brazil,-22.73028,-42.71417
Tanabi,Brazil,-20.62639,-49.64917
Tambaú,Brazil,-21.705,-47.27444
Taiobeiras,Brazil,-15.80778,-42.23306
Taboão da Serra,Brazil,-23.62611,-46.79167
Suzano,Brazil,-23.5425,-46.31083
Sumaré,Brazil,-22.82194,-47.26694
Sorocaba,Brazil,-23.50167,-47.45806
Soledade,Brazil,-28.81833,-52.51028
Socorro,Brazil,-22.59139,-46.52889
Sobradinho,Brazil,-12.83333,-39.1
Simão Dias,Brazil,-10.73833,-37.81111
Silva Jardim,Brazil,-22.65083,-42.39167
Sidrolândia,Brazil,-20.93194,-54.96139
Sete Lagoas,Brazil,-19.46583,-44.24667
Sertãozinho,Brazil,-21.13778,-47.99028
Serrinha,Brazil,-11.66417,-39.0075
Serra Negra,Brazil,-22.61222,-46.70056
Serrana,Brazil,-21.21139,-47.59556
Serra,Brazil,-20.12861,-40.30778
Seropédica,Brazil,-22.74389,-43.7075
Senhor do Bonfim,Brazil,-10.46139,-40.18944
Senador Canedo,Brazil,-16.70806,-49.09306
Seabra,Brazil,-12.41713,-41.77049
Schroeder,Brazil,-26.4125,-49.07306
Saubara,Brazil,-12.7375,-38.76861
Sarzedo,Brazil,-20.03528,-44.14472
Sarandi,Brazil,-27.94389,-52.92306
Sarandi,Brazil,-23.44361,-51.87389
Saquarema,Brazil,-22.92,-42.51028
Sapucaia,Brazil,-29.83333,-51.15
Sapiranga,Brazil,-29.63806,-51.00694
São Vicente,Brazil,-23.96306,-46.39194
São Sepé,Brazil,-30.16056,-53.56528
São Sebastião do Passé,Brazil,-12.5125,-38.49528
São Sebastião do Paraíso,Brazil,-20.91694,-46.99139
São Sebastião do Caí,Brazil,-29.58667,-51.37556
São Sebastião,Brazil,-23.76,-45.40972
São Roque,Brazil,-23.52917,-47.13528
São Pedro da Aldeia,Brazil,-22.83917,-42.10278
São Pedro,Brazil,-22.54861,-47.91389
São Paulo,Brazil,-23.5475,-46.63611
São Miguel do Iguaçu,Brazil,-25.34806,-54.23778
São Miguel do Araguaia,Brazil,-13.275,-50.16278
São Mateus do Sul,Brazil,-25.87417,-50.38278
São Mateus,Brazil,-18.72011,-39.85891
São Marcos,Brazil,-28.97111,-51.06806
São Manuel,Brazil,-22.73111,-48.57056
São Luiz Gonzaga,Brazil,-28.40833,-54.96083
São Luís de Montes Belos,Brazil,-16.525,-50.37222
São Lourenço do Sul,Brazil,-31.36528,-51.97833
São Lourenço,Brazil,-22.11639,-45.05444
São Leopoldo,Brazil,-29.76028,-51.14722
São José dos Pinhais,Brazil,-25.5302,-49.20836
São José dos Campos,Brazil,-23.17944,-45.88694
São José do Rio Preto,Brazil,-20.81972,-49.37944
São José do Rio Pardo,Brazil,-21.59556,-46.88861
São José,Brazil,-28.21171,-49.1632
São Joaquim da Barra,Brazil,-20.58139,-47.85472
São Joaquim,Brazil,-28.29389,-49.93167
São João Nepomuceno,Brazil,-21.54,-43.01056
São João de Meriti,Brazil,-22.80389,-43.37222
São João del Rei,Brazil,-21.13556,-44.26167
São João da Boa Vista,Brazil,-21.96917,-46.79806
São João da Barra,Brazil,-21.64028,-41.05111
São Jerônimo,Brazil,-29.95917,-51.72222
São Gotardo,Brazil,-19.31111,-46.04889
São Gonçalo do Sapucaí,Brazil,-21.89222,-45.59528
São Gabriel,Brazil,-30.33639,-54.32
São Francisco do Sul,Brazil,-26.24333,-48.63806
São Francisco do Conde,Brazil,-12.6275,-38.68
São Francisco,Brazil,-15.94861,-44.86444
São Fidélis,Brazil,-21.64611,-41.74694
São Cristóvão,Brazil,-11.01472,-37.20639
São Carlos,Brazil,-22.0175,-47.89083
São Caetano do Sul,Brazil,-23.62306,-46.55111
São Borja,Brazil,-28.66056,-56.00444
São Bernardo do Campo,Brazil,-23.69389,-46.565
São Bento do Sul,Brazil,-26.25028,-49.37861
Santos Dumont,Brazil,-21.45667,-43.5525
Santos,Brazil,-23.96083,-46.33361
Santo Estêvão,Brazil,-12.43028,-39.25139
Santo Antônio do Monte,Brazil,-20.08722,-45.29361
Santo Antônio do Amparo,Brazil,-20.94639,-44.91889
Santo Antônio de Posse,Brazil,-22.60611,-46.91944
Santo Antônio de Pádua,Brazil,-21.53944,-42.18028
Santo Antônio de Jesus,Brazil,-12.96889,-39.26139
Santo Antônio da Platina,Brazil,-23.295,-50.07722
Santo Ângelo,Brazil,-28.29917,-54.26306
Santo André,Brazil,-23.66389,-46.53833
Santo Anastácio,Brazil,-21.83833,-51.61028
Santo Amaro da Imperatriz,Brazil,-27.68806,-48.77861
Santo Amaro,Brazil,-12.54667,-38.71194
Santiago,Brazil,-29.19167,-54.86722
Santa Vitória do Palmar,Brazil,-33.51889,-53.36806
Santa Rosa de Viterbo,Brazil,-21.47278,-47.36306
Santa Rosa,Brazil,-27.87083,-54.48139
Santa Rita do Sapucaí,Brazil,-22.25222,-45.70333
Santa Rita do Passa Quatro,Brazil,-21.71028,-47.47806
Santana do Paraíso,Brazil,-19.36361,-42.56861
Santana do Livramento,Brazil,-30.89083,-55.53278
Santana de Parnaíba,Brazil,-23.44417,-46.91778
Santa Maria da Vitória,Brazil,-13.38814,-44.19868
Santa Maria,Brazil,-29.68417,-53.80694
Santa Luzia,Brazil,-19.76972,-43.85139
Santaluz,Brazil,-11.25583,-39.37472
Santa Isabel,Brazil,-23.31556,-46.22139
Santa Helena de Goiás,Brazil,-17.81361,-50.59694
Santa Gertrudes,Brazil,-22.45667,-47.53028
Santa Fé do Sul,Brazil,-20.21111,-50.92583
Santa Cruz do Sul,Brazil,-29.7175,-52.42583
Santa Cruz do Rio Pardo,Brazil,-22.89889,-49.6325
Santa Cruz das Palmeiras,Brazil,-21.82694,-47.24861
Santa Cecília,Brazil,-26.96083,-50.42694
Santa Bárbara d'Oeste,Brazil,-22.75361,-47.41361
Salto de Pirapora,Brazil,-23.64889,-47.57333
Salto,Brazil,-23.20083,-47.28694
Salinas,Brazil,-16.17028,-42.29028
Sacramento,Brazil,-19.86528,-47.44
Ruy Barbosa,Brazil,-12.28389,-40.49389
Rubiataba,Brazil,-15.16444,-49.80333
Rosário do Sul,Brazil,-30.25833,-54.91417
Rondonópolis,Brazil,-16.47083,-54.63556
Rolante,Brazil,-29.65056,-50.57583
Rolândia,Brazil,-23.30972,-51.36917
Rio Verde de Mato Grosso,Brazil,-18.91806,-54.84417
Rio Real,Brazil,-11.48472,-37.93278
Rio Pardo,Brazil,-29.98972,-52.37806
Rio Negro,Brazil,-26.10583,-49.7975
Rio Negrinho,Brazil,-26.25444,-49.51833
Rio Grande da Serra,Brazil,-23.74417,-46.39833
Rio Grande,Brazil,-32.035,-52.09861
Rio do Sul,Brazil,-27.21417,-49.64306
Rio de Janeiro,Brazil,-22.90278,-43.2075
Rio das Pedras,Brazil,-22.84333,-47.60611
Rio das Ostras,Brazil,-22.52694,-41.945
Rio Claro,Brazil,-22.41139,-47.56139
Rio Brilhante,Brazil,-21.80194,-54.54639
Rio Branco do Sul,Brazil,-25.19,-49.31417
Rio Bonito,Brazil,-22.70861,-42.60972
Ribeirão Preto,Brazil,-21.1775,-47.81028
Ribeirão Pires,Brazil,-23.71056,-46.41333
Ribeirão das Neves,Brazil,-19.76694,-44.08667
Ribeirão da Ilha,Brazil,-27.69934,-48.53219
Ribeira do Pombal,Brazil,-10.83444,-38.53583
Riachão do Jacuípe,Brazil,-11.80694,-39.38556
Resplendor,Brazil,-19.32556,-41.25528
Resende,Brazil,-22.46889,-44.44667
Registro,Brazil,-24.4875,-47.84361
Regente Feijó,Brazil,-22.22139,-51.30278
Rancharia,Brazil,-22.22917,-50.89306
Quirinópolis,Brazil,-18.44833,-50.45167
Queimados,Brazil,-22.71611,-43.55528
Quatro Barras,Brazil,-25.36556,-49.07694
Quaraí,Brazil,-30.3875,-56.45139
Prudentópolis,Brazil,-25.21306,-50.97778
Propriá,Brazil,-10.21111,-36.84028
Promissão,Brazil,-21.53667,-49.85806
Presidente Venceslau,Brazil,-21.87611,-51.84389
Presidente Prudente,Brazil,-22.12556,-51.38889
Presidente Epitácio,Brazil,-21.76333,-52.11556
Prata,Brazil,-19.30722,-48.92417
Praia Grande,Brazil,-24.00583,-46.40278
Prado,Brazil,-17.34111,-39.22083
Pouso Alegre,Brazil,-22.23,-45.93639
Posse,Brazil,-14.09306,-46.36944
Porto União,Brazil,-26.23806,-51.07833
Porto Seguro,Brazil,-16.44972,-39.06472
Porto Ferreira,Brazil,-21.85389,-47.47917
Porto Feliz,Brazil,-23.21472,-47.52389
Porto Alegre,Brazil,-30.03306,-51.23
Portão,Brazil,-29.70167,-51.24194
Porangatu,Brazil,-13.44083,-49.14861
Pontes e Lacerda,Brazil,-15.22611,-59.33528
Ponte Nova,Brazil,-20.41639,-42.90861
Ponta Porã,Brazil,-22.53611,-55.72556
Pontal,Brazil,-21.0225,-48.03722
Ponta Grossa,Brazil,-25.095,-50.16194
Pompéu,Brazil,-19.22444,-44.93528
Pompéia,Brazil,-22.10861,-50.17167
Pomerode,Brazil,-26.74056,-49.17694
Poços de Caldas,Brazil,-21.78778,-46.56139
Poconé,Brazil,-16.25667,-56.62278
Poções,Brazil,-14.52972,-40.36528
Poá,Brazil,-23.52806,-46.34472
Planaltina,Brazil,-15.45278,-47.61417
Piúma,Brazil,-20.83778,-40.72194
Piuí,Brazil,-20.46528,-45.95806
Pitangui,Brazil,-19.68278,-44.89028
Pitangueiras,Brazil,-21.00944,-48.22167
Pitanga,Brazil,-24.75722,-51.76139
Piritiba,Brazil,-11.73028,-40.55528
Pires do Rio,Brazil,-17.29972,-48.27944
Piraquara,Brazil,-25.44227,-49.06795
Pirapozinho,Brazil,-22.27528,-51.5
Pirapora,Brazil,-17.345,-44.94194
Pirajuí,Brazil,-21.99861,-49.45722
Piraju,Brazil,-23.19361,-49.38389
Piraí do Sul,Brazil,-24.52611,-49.94861
Piraí,Brazil,-22.62917,-43.89806
Pirassununga,Brazil,-21.99611,-47.42583
Piracicaba,Brazil,-22.72528,-47.64917
Piracanjuba,Brazil,-17.30278,-49.01667
Piracaia,Brazil,-23.05389,-46.35806
Pinheiral,Brazil,-22.51278,-44.00056
Pinhão,Brazil,-25.69556,-51.65972
Espírito Santo do Pinhal,Brazil,-22.11583,-46.68278
Pindobaçu,Brazil,-10.74167,-40.36083
Pindamonhangaba,Brazil,-22.92389,-45.46167
Pilar do Sul,Brazil,-23.81306,-47.71639
Villepinte,France,48.96203,2.53253
Piedade,Brazil,-23.71194,-47.42778
Petrópolis,Brazil,-22.505,-43.17861
Peruíbe,Brazil,-24.32,-46.99833
Pereira Barreto,Brazil,-20.63833,-51.10917
Perdões,Brazil,-21.09083,-45.09139
Penha,Brazil,-26.76944,-48.64583
Penedo,Brazil,-10.29028,-36.58639
Penápolis,Brazil,-21.41972,-50.0775
Pelotas,Brazil,-31.77194,-52.3425
Pedro Leopoldo,Brazil,-19.61806,-44.04306
Pedreira,Brazil,-22.74194,-46.90139
Pedra Azul,Brazil,-16.00528,-41.29722
Pederneiras,Brazil,-22.35167,-48.775
Paulínia,Brazil,-22.76111,-47.15417
Patrocínio,Brazil,-18.94389,-46.9925
Patos de Minas,Brazil,-18.57889,-46.51806
Pato Branco,Brazil,-26.22861,-52.67056
Paty do Alferes,Brazil,-22.42861,-43.41861
Passos,Brazil,-20.71889,-46.60972
Passo Fundo,Brazil,-28.26278,-52.40667
Parobé,Brazil,-29.62861,-50.83472
Paraty,Brazil,-23.21778,-44.71306
Paranavaí,Brazil,-23.07306,-52.46528
Paranapanema,Brazil,-23.3863,-48.72441
Paranaíba,Brazil,-19.67722,-51.19083
Paranaguá,Brazil,-25.51626,-48.52537
Paraíba do Sul,Brazil,-22.15847,-43.29321
Paraguaçu Paulista,Brazil,-22.41278,-50.57583
Paraguaçu,Brazil,-21.54722,-45.7375
Pará de Minas,Brazil,-19.86028,-44.60833
Paracatu,Brazil,-17.22222,-46.87472
Paracambi,Brazil,-22.60829,-43.7084
Panambi,Brazil,-28.2925,-53.50167
Palotina,Brazil,-24.28389,-53.84
Palmital,Brazil,-22.78889,-50.2175
Palmeira das Missões,Brazil,-27.89944,-53.31361
Palmeira,Brazil,-25.42944,-50.00639
Palmas,Brazil,-26.48417,-51.99056
Palhoça,Brazil,-27.64528,-48.66778
Paiçandu,Brazil,-23.4575,-52.04861
Padre Bernardo,Brazil,-15.16595,-48.28281
Ouro Preto,Brazil,-20.39484,-43.50517
Ouro Branco,Brazil,-20.52334,-43.69486
Ourinhos,Brazil,-22.97889,-49.87056
Osvaldo Cruz,Brazil,-21.79667,-50.87861
Osório,Brazil,-29.88667,-50.26972
Osasco,Brazil,-23.5325,-46.79167
Orleans,Brazil,-28.35889,-49.29139
Orlândia,Brazil,-20.72028,-47.88667
Oliveira,Brazil,-20.69639,-44.82722
Olímpia,Brazil,-20.73722,-48.91472
Novo Horizonte,Brazil,-21.46806,-49.22083
Novo Hamburgo,Brazil,-29.67833,-51.13056
Nova Viçosa,Brazil,-17.89194,-39.37194
Nova Venécia,Brazil,-18.71056,-40.40056
Nova Prata,Brazil,-28.78389,-51.61
Nova Petrópolis,Brazil,-29.37639,-51.11444
Nova Olímpia,Brazil,-14.79722,-57.28806
Nova Odessa,Brazil,-22.7775,-47.29583
Nova Lima,Brazil,-19.98556,-43.84667
Nova Iguaçu,Brazil,-22.75917,-43.45111
Nova Granada,Brazil,-20.53389,-49.31417
Nova Friburgo,Brazil,-22.28194,-42.53111
Nova Era,Brazil,-19.75,-43.0375
Nossa Senhora do Socorro,Brazil,-10.855,-37.12611
Nossa Senhora da Glória,Brazil,-10.21833,-37.42028
Niterói,Brazil,-22.88333,-43.10361
Niquelândia,Brazil,-14.47389,-48.45972
Nilópolis,Brazil,-22.8075,-43.41389
Nerópolis,Brazil,-16.40639,-49.21861
Nepomuceno,Brazil,-21.23342,-45.23488
Nazaré,Brazil,-13.035,-39.01444
Naviraí,Brazil,-23.065,-54.19056
Navegantes,Brazil,-26.89889,-48.65417
Nanuque,Brazil,-17.83917,-40.35389
Muzambinho,Brazil,-21.37583,-46.52556
Muritiba,Brazil,-12.91667,-39.25
Muriaé,Brazil,-21.13056,-42.36639
Mucuri,Brazil,-18.08639,-39.55083
Morro do Chapéu,Brazil,-11.54852,-41.15804
Morro Agudo,Brazil,-20.73139,-48.05778
Morrinhos,Brazil,-17.73111,-49.09944
Montes Claros,Brazil,-16.735,-43.86167
Monte Santo de Minas,Brazil,-21.18972,-46.98028
Montenegro,Brazil,-29.68861,-51.46111
Monte Mor,Brazil,-22.94667,-47.31583
Monte Carmelo,Brazil,-18.72472,-47.49861
Monte Azul Paulista,Brazil,-20.90722,-48.64139
Monte Aprazível,Brazil,-20.7725,-49.71417
Monte Alto,Brazil,-21.26111,-48.49639
Mongaguá,Brazil,-24.09306,-46.62083
Mogi Mirim,Brazil,-22.43194,-46.95778
Mogi Guaçu,Brazil,-22.3677,-46.94552
Mogi das Cruzes,Brazil,-23.52278,-46.18833
Mococa,Brazil,-21.46778,-47.00472
Mirandopólis,Brazil,-21.13361,-51.10167
Miracema,Brazil,-21.41222,-42.19667
Mineiros,Brazil,-17.56944,-52.55111
Miguel Pereira,Brazil,-22.45389,-43.46889
Miguelópolis,Brazil,-20.17944,-48.03194
Mendes,Brazil,-22.52667,-43.73278
Medianeira,Brazil,-25.29528,-54.09389
Medeiros Neto,Brazil,-17.37389,-40.22056
Mauá,Brazil,-23.66778,-46.46139
Matozinhos,Brazil,-19.55778,-44.08139
Mateus Leme,Brazil,-19.98639,-44.42778
Matão,Brazil,-21.60333,-48.36583
Mata de São João,Brazil,-12.53028,-38.29917
Mascote,Brazil,-15.56306,-39.3025
Martinópolis,Brazil,-22.14583,-51.17083
Maringá,Brazil,-23.42528,-51.93861
Marília,Brazil,-22.21389,-49.94583
Maricá,Brazil,-22.91944,-42.81861
Mariana,Brazil,-20.37778,-43.41611
Marialva,Brazil,-23.485,-51.79167
Marechal Cândido Rondon,Brazil,-24.55611,-54.05667
Marau,Brazil,-28.44917,-52.2
Marataizes,Brazil,-21.04333,-40.82444
Maragogipe,Brazil,-12.77778,-38.91944
Maracás,Brazil,-13.44111,-40.43083
Maracaju,Brazil,-21.61444,-55.16833
Manhumirim,Brazil,-20.35778,-41.95806
Manhuaçu,Brazil,-20.25806,-42.03361
Mangaratiba,Brazil,-22.95972,-44.04056
Mandaguari,Brazil,-23.5475,-51.67083
Mairiporã,Brazil,-23.31861,-46.58667
Mairinque,Brazil,-23.54583,-47.18333
Mafra,Brazil,-26.11139,-49.80528
Machado,Brazil,-21.67472,-45.91972
Macatuba,Brazil,-22.50222,-48.71139
Macaé,Brazil,-22.37083,-41.78694
Luziânia,Brazil,-16.2525,-47.95028
Lucas,Brazil,-16.33333,-55.93333
Louveira,Brazil,-23.08639,-46.95056
Lorena,Brazil,-22.73083,-45.12472
Londrina,Brazil,-23.31028,-51.16278
Loanda,Brazil,-22.92306,-53.13722
Livramento do Brumado,Brazil,-13.65145,-41.84564
Lins,Brazil,-21.67861,-49.7425
Linhares,Brazil,-19.39111,-40.07222
Limeira,Brazil,-22.56472,-47.40167
Leopoldina,Brazil,-21.53194,-42.64306
Lençóis Paulista,Brazil,-22.59861,-48.80028
Leme,Brazil,-22.18556,-47.39028
Lavras,Brazil,-21.24528,-44.99972
Laranjeiras do Sul,Brazil,-25.40778,-52.41611
Laranjeiras,Brazil,-10.80639,-37.17
Laranjal Paulista,Brazil,-23.04972,-47.83667
Lapa,Brazil,-25.76972,-49.71583
Lajinha,Brazil,-20.15139,-41.62278
Lages,Brazil,-27.81611,-50.32611
Lajeado,Brazil,-29.46694,-51.96139
Laguna,Brazil,-28.4825,-48.78083
Lagoa Vermelha,Brazil,-28.20861,-51.52583
Lagoa Santa,Brazil,-19.63006,-43.9009
Lagoa da Prata,Brazil,-20.0225,-45.54361
Lagarto,Brazil,-10.91722,-37.65
Ladário,Brazil,-19.00472,-57.60167
Jundiaí,Brazil,-23.18639,-46.88417
Júlio de Castilhos,Brazil,-29.22694,-53.68167
Juiz de Fora,Brazil,-21.76417,-43.35028
Juatuba,Brazil,-19.95194,-44.34278
José Bonifácio,Brazil,-21.05278,-49.68833
Joinville,Brazil,-26.30444,-48.84556
João Pinheiro,Brazil,-17.7425,-46.1725
João Monlevade,Brazil,-19.81,-43.17361
Joaçaba,Brazil,-27.17806,-51.50472
Jeremoabo,Brazil,-10.075,-38.48083
Jequitinhonha,Brazil,-16.43389,-41.00333
Jequié,Brazil,-13.85875,-40.08512
Jaú,Brazil,-22.29639,-48.55778
Jataí,Brazil,-17.87939,-51.72166
Jarinu,Brazil,-23.10139,-46.72833
Jardinópolis,Brazil,-21.01778,-47.76389
Jardim,Brazil,-21.48028,-56.13806
Jaraguá do Sul,Brazil,-26.48611,-49.06667
Jaraguá,Brazil,-15.75694,-49.33444
Japeri,Brazil,-22.64306,-43.65333
Januária,Brazil,-15.48866,-44.35988
Jandira,Brazil,-23.5275,-46.9025
Jandaia do Sul,Brazil,-23.60306,-51.64333
Janaúba,Brazil,-15.8025,-43.30889
Jales,Brazil,-20.26889,-50.54583
Jaguariúna,Brazil,-22.70556,-46.98583
Jaguariaíva,Brazil,-24.24423,-49.70932
Jaguarari,Brazil,-10.26389,-40.19583
Jaguarão,Brazil,-32.56611,-53.37583
Jaguaquara,Brazil,-13.53056,-39.97083
Jacutinga,Brazil,-22.28556,-46.61222
Jacobina,Brazil,-11.18143,-40.51372
Jaciara,Brazil,-15.96528,-54.96833
Jacarezinho,Brazil,-23.16056,-49.96944
Jacareí,Brazil,-23.30528,-45.96583
Jaboticabal,Brazil,-21.25472,-48.32222
Ivoti,Brazil,-29.59111,-51.16056
Ituverava,Brazil,-20.33944,-47.78056
Iturama,Brazil,-19.72806,-50.19556
Itupeva,Brazil,-23.15306,-47.05778
Itumbiara,Brazil,-18.41917,-49.21528
Ituiutaba,Brazil,-18.97428,-49.46212
Ituberá,Brazil,-13.73222,-39.14917
Itu,Brazil,-23.26417,-47.29917
Itororó,Brazil,-15.11694,-40.07028
Itaúna,Brazil,-20.07528,-44.57639
Itatinga,Brazil,-23.10167,-48.61583
Itatiba,Brazil,-23.00583,-46.83889
Itararé,Brazil,-24.1125,-49.33167
Itaqui,Brazil,-29.12528,-56.55306
Itaquaquecetuba,Brazil,-23.48611,-46.34833
Itapuranga,Brazil,-15.56222,-49.94861
Itápolis,Brazil,-21.59556,-48.81278
Itapira,Brazil,-22.43611,-46.82167
Itapevi,Brazil,-23.54889,-46.93417
Itapeva,Brazil,-23.98222,-48.87556
Itapetininga,Brazil,-23.59167,-48.05306
Itapetinga,Brazil,-15.24889,-40.24778
Itaperuna,Brazil,-21.205,-41.88778
Itaperuçu,Brazil,-25.22,-49.34778
Itapemirim,Brazil,-21.01111,-40.83389
Itapema,Brazil,-27.09028,-48.61139
Itapecerica da Serra,Brazil,-23.71694,-46.84917
Itapecerica,Brazil,-20.4725,-45.12556
Itaparica,Brazil,-12.88833,-38.67861
Itapaci,Brazil,-14.95083,-49.54944
Itaocara,Brazil,-21.66917,-42.07611
Itanhaém,Brazil,-24.18306,-46.78889
Itambé,Brazil,-15.245,-40.62444
Itamarandiba,Brazil,-17.85722,-42.85889
Itamaraju,Brazil,-17.03917,-39.53111
Itajuípe,Brazil,-14.67806,-39.375
Itajubá,Brazil,-22.42556,-45.45278
Itajaí,Brazil,-26.90778,-48.66194
Itaí,Brazil,-23.41778,-49.09056
Itaguaí,Brazil,-22.85222,-43.77528
Itabuna,Brazil,-14.78556,-39.28028
Itaboraí,Brazil,-22.74444,-42.85944
Itabirito,Brazil,-20.25333,-43.80139
Itabira,Brazil,-19.61917,-43.22694
Itaberaí,Brazil,-16.02028,-49.81028
Itaberaba,Brazil,-12.5275,-40.30694
Itabaianinha,Brazil,-11.27389,-37.79
Itabaiana,Brazil,-10.685,-37.42528
Irecê,Brazil,-11.30417,-41.85583
Irati,Brazil,-25.46722,-50.65111
Iracemápolis,Brazil,-22.58056,-47.51861
Iporá,Brazil,-16.44194,-51.11778
Ipirá,Brazil,-12.15833,-39.73722
Ipiaú,Brazil,-14.13449,-39.73948
Iperó,Brazil,-23.35028,-47.68861
Ipatinga,Brazil,-19.46833,-42.53667
Ipameri,Brazil,-17.72194,-48.15972
Ipaba,Brazil,-19.41361,-42.41944
Inhumas,Brazil,-16.35778,-49.49611
Indaiatuba,Brazil,-23.08842,-47.2119
Indaial,Brazil,-26.89778,-49.23167
Imbituva,Brazil,-25.23,-50.60444
Imbituba,Brazil,-28.24,-48.67028
Ilha Solteira,Brazil,-20.43278,-51.3425
Ijuí,Brazil,-28.38778,-53.91472
Iguape,Brazil,-24.70806,-47.55528
Igrejinha,Brazil,-29.57444,-50.79028
Igarapé,Brazil,-20.07028,-44.30167
Igarapava,Brazil,-20.03833,-47.74694
Igaraçu do Tietê,Brazil,-22.50917,-48.55778
Içara,Brazil,-28.71333,-49.3
Ibotirama,Brazil,-12.18528,-43.22056
Ibiúna,Brazil,-23.65639,-47.2225
Ibitinga,Brazil,-21.75778,-48.82889
Ibirité,Brazil,-20.02194,-44.05889
Ibirataia,Brazil,-14.06694,-39.64056
Ibirama,Brazil,-27.05694,-49.51778
Ibiporã,Brazil,-23.26917,-51.04806
Ibicaraí,Brazil,-14.865,-39.5875
Ibiá,Brazil,-19.47833,-46.53889
Ibaté,Brazil,-21.95472,-47.99667
Ibaiti,Brazil,-23.84861,-50.18778
Iaçu,Brazil,-12.76722,-40.21167
Hortolândia,Brazil,-22.85833,-47.22
Herval,Brazil,-32.02361,-53.39556
Gurupi,Brazil,-11.72917,-49.06861
Guaxupé,Brazil,-21.30528,-46.71278
Guarulhos,Brazil,-23.46278,-46.53333
Guarujá,Brazil,-23.99306,-46.25639
Guariba,Brazil,-21.36,-48.22833
Guaratuba,Brazil,-25.88278,-48.57472
Guaratinguetá,Brazil,-22.81639,-45.1925
Guararema,Brazil,-23.415,-46.035
Guararapes,Brazil,-21.26083,-50.64278
Guarapuava,Brazil,-25.39048,-51.46541
Guarapari,Brazil,-20.65367,-40.50204
Guaranésia,Brazil,-21.29917,-46.8025
Guaramirim,Brazil,-26.47306,-49.00278
Guará,Brazil,-20.42833,-47.82417
Guaporé,Brazil,-28.84556,-51.89028
Guapimirim,Brazil,-22.53722,-42.98194
Guanhães,Brazil,-18.775,-42.9325
Guanambi,Brazil,-14.22333,-42.78139
Guaíra,Brazil,-20.31833,-48.31056
Guaçuí,Brazil,-20.77556,-41.67944
Gravataí,Brazil,-29.94218,-50.99278
Governador Valadares,Brazil,-18.85111,-41.94944
Goiatuba,Brazil,-18.0125,-49.35472
Goiás,Brazil,-15.93444,-50.14028
Goianira,Brazil,-16.49611,-49.42639
Goiânia,Brazil,-16.67861,-49.25389
Goianésia,Brazil,-15.3175,-49.1175
Gaspar,Brazil,-26.93139,-48.95889
Garibaldi,Brazil,-29.25611,-51.53361
Garça,Brazil,-22.21056,-49.65611
Gandu,Brazil,-13.74389,-39.48667
Frutal,Brazil,-20.02472,-48.94056
Frederico Westphalen,Brazil,-27.35917,-53.39444
Franco da Rocha,Brazil,-23.32167,-46.72694
Francisco Morato,Brazil,-23.28167,-46.74528
Francisco Beltrão,Brazil,-26.08111,-53.055
Franca,Brazil,-20.53861,-47.40083
Foz do Iguaçu,Brazil,-25.54778,-54.58806
Forquilhinha,Brazil,-28.7475,-49.47222
Formosa,Brazil,-15.53722,-47.33444
Formiga,Brazil,-20.46444,-45.42639
Florianópolis,Brazil,-27.59667,-48.54917
Flores da Cunha,Brazil,-29.02889,-51.18167
Ferraz de Vasconcelos,Brazil,-23.54083,-46.36861
Fernandópolis,Brazil,-20.28389,-50.24639
Feira de Santana,Brazil,-12.26667,-38.96667
Farroupilha,Brazil,-29.225,-51.34778
Euclides da Cunha,Brazil,-10.5075,-39.01583
Estrela,Brazil,-28.06111,-50.93833
Esteio,Brazil,-29.86139,-51.17917
Estância Velha,Brazil,-29.64833,-51.17389
Estância,Brazil,-11.26833,-37.43833
Esplanada,Brazil,-11.79611,-37.945
Espinosa,Brazil,-14.92611,-42.81917
Esmeraldas,Brazil,-19.7625,-44.31389
Erechim,Brazil,-27.63461,-52.2754
Entre Rios,Brazil,-11.94194,-38.08444
Encruzilhada do Sul,Brazil,-30.54389,-52.52194
Encantado,Brazil,-29.23611,-51.86972
Embu Guaçu,Brazil,-23.83222,-46.81139
Embu,Brazil,-23.64889,-46.85222
Elói Mendes,Brazil,-21.61,-45.56528
Duque de Caxias,Brazil,-22.78556,-43.31167
Dourados,Brazil,-22.22111,-54.80556
Dom Pedrito,Brazil,-30.98278,-54.67306
Dois Vizinhos,Brazil,-25.73361,-53.05722
Dois Córregos,Brazil,-22.36611,-48.38028
Divinópolis,Brazil,-20.14355,-44.89065
Diamantino,Brazil,-14.40861,-56.44611
Diamantina,Brazil,-18.24692,-43.60345
Diadema,Brazil,-23.68611,-46.62278
Descalvado,Brazil,-21.90389,-47.61944
Curvelo,Brazil,-18.75639,-44.43083
Curitibanos,Brazil,-27.28278,-50.58444
Curitiba,Brazil,-25.42778,-49.27306
Cuiabá,Brazil,-15.59611,-56.09667
Cubatão,Brazil,-23.895,-46.42528
Cruzeiro do Oeste,Brazil,-23.785,-53.07333
Cruzeiro,Brazil,-22.57316,-44.97108
Cruz das Almas,Brazil,-12.67,-39.10194
Cruz Alta,Brazil,-28.63861,-53.60639
Cristalina,Brazil,-16.76769,-47.6153
Criciúma,Brazil,-28.6775,-49.36972
Cravinhos,Brazil,-21.34028,-47.72944
Coxim,Brazil,-18.50667,-54.76
Cotia,Brazil,-23.60389,-46.91917
Cosmópolis,Brazil,-22.64583,-47.19611
Coruripe,Brazil,-10.12556,-36.17556
Corumbá,Brazil,-19.00917,-57.65333
Coronel Vivida,Brazil,-25.97972,-52.56778
Coronel Fabriciano,Brazil,-19.51861,-42.62889
Coromandel,Brazil,-18.47333,-47.20028
Cornélio Procópio,Brazil,-23.18111,-50.64667
Corinto,Brazil,-18.38083,-44.45639
Cordeirópolis,Brazil,-22.48194,-47.45667
Cordeiro,Brazil,-22.02861,-42.36083
Contagem,Brazil,-19.93167,-44.05361
Conselheiro Lafaiete,Brazil,-20.66028,-43.78611
Congonhas,Brazil,-20.50525,-43.8588
Conde,Brazil,-11.81361,-37.61056
Concórdia,Brazil,-27.23417,-52.02778
Conchal,Brazil,-22.33028,-47.1725
Conceição do Coité,Brazil,-11.56389,-39.28278
Conceição do Jacuípe,Brazil,-12.31667,-38.76667
Conceição das Alagoas,Brazil,-19.91472,-48.38833
Conceição da Feira,Brazil,-12.50583,-38.99861
Conceição da Barra,Brazil,-18.59333,-39.73222
Colorado,Brazil,-22.8375,-51.97306
Colombo,Brazil,-25.29167,-49.22417
Colatina,Brazil,-19.53944,-40.63056
Coaraci,Brazil,-14.64083,-39.55111
Cláudio,Brazil,-20.44333,-44.76583
Cícero Dantas,Brazil,-10.6,-38.38333
Cianorte,Brazil,-23.66333,-52.605
Charqueadas,Brazil,-29.95472,-51.62528
Chapecó,Brazil,-27.09639,-52.61833
Cerquilho,Brazil,-23.165,-47.74361
Ceres,Brazil,-15.30833,-49.59833
Celso Ramos,Brazil,-27.63444,-51.33639
Caxias do Sul,Brazil,-29.16806,-51.17944
Caxambu,Brazil,-21.97722,-44.9325
Catu,Brazil,-12.35306,-38.37889
Catanduva,Brazil,-21.13778,-48.97278
Catalão,Brazil,-18.16583,-47.94639
Cataguases,Brazil,-21.38917,-42.69667
Castro,Brazil,-24.78927,-50.01225
Castelo,Brazil,-20.60361,-41.18472
Cassilândia,Brazil,-19.11333,-51.73417
Casimiro de Abreu,Brazil,-22.48056,-42.20417
Cascavel,Brazil,-24.95583,-53.45528
Casa Branca,Brazil,-21.77389,-47.08639
Carmo do Paranaíba,Brazil,-19.00083,-46.31611
Carmo do Cajuru,Brazil,-20.18417,-44.77111
Carlos Barbosa,Brazil,-29.2975,-51.50361
Carazinho,Brazil,-28.28389,-52.78639
Caratinga,Brazil,-19.78972,-42.13917
Carapicuíba,Brazil,-23.52272,-46.835
Carangola,Brazil,-20.73306,-42.02944
Carandaí,Brazil,-20.95361,-43.80639
Caraguatatuba,Brazil,-23.62028,-45.41306
Capivari,Brazil,-22.995,-47.50778
Capinzal,Brazil,-27.34361,-51.61194
Capim Grosso,Brazil,-11.38111,-40.01278
Capelinha,Brazil,-17.69139,-42.51583
Capela,Brazil,-10.50333,-37.05278
Capão da Canoa,Brazil,-29.74556,-50.00972
Capâo Bonito,Brazil,-24.00583,-48.34944
Canoinhas,Brazil,-26.17722,-50.39
Canoas,Brazil,-29.91778,-51.18361
Canguçu,Brazil,-31.395,-52.67556
Canela,Brazil,-29.35622,-50.81357
Cândido Mota,Brazil,-22.74639,-50.38694
Candelária,Brazil,-29.66917,-52.78889
Canavieiras,Brazil,-15.675,-38.94722
Campo Verde,Brazil,-20.41667,-54.06667
Campos Novos,Brazil,-27.40167,-51.225
Campos Gerais,Brazil,-21.235,-45.75861
Campos do Jordão,Brazil,-22.73944,-45.59139
Campos Belos,Brazil,-13.03667,-46.77167
Campos dos Goytacazes,Brazil,-21.75227,-41.33044
Campo Mourão,Brazil,-24.04309,-52.37929
Campo Largo,Brazil,-25.45955,-49.53014
Campo Grande,Brazil,-20.44278,-54.64639
Campo Formoso,Brazil,-10.5075,-40.32139
Campo Belo,Brazil,-20.89722,-45.27722
Campinas,Brazil,-22.90556,-47.06083
Campina Grande do Sul,Brazil,-25.30556,-49.05528
Cambuí,Brazil,-22.61222,-46.0575
Cambé,Brazil,-23.27583,-51.27833
Cambará,Brazil,-23.04639,-50.07361
Camaquã,Brazil,-30.85111,-51.81222
Camanducaia,Brazil,-22.75528,-46.14472
Camaçari,Brazil,-12.6975,-38.32417
Caldas Novas,Brazil,-17.74431,-48.62789
Cajuru,Brazil,-21.27528,-47.30417
Cajati,Brazil,-24.73611,-48.12278
Cajamar,Brazil,-23.35611,-46.87694
Caieiras,Brazil,-23.36417,-46.74056
Caetité,Brazil,-14.06944,-42.475
Caeté,Brazil,-19.88,-43.66972
Cachoeiro de Itapemirim,Brazil,-20.84889,-41.11278
Cachoeirinha,Brazil,-29.95111,-51.09389
Cachoeiras de Macacu,Brazil,-22.4625,-42.65306
Cachoeira do Sul,Brazil,-30.03917,-52.89389
Cachoeira,Brazil,-12.60139,-38.96576
Caçapava do Sul,Brazil,-30.51436,-53.48496
Caçapava,Brazil,-23.10083,-45.70694
Caçador,Brazil,-26.77528,-51.015
Cabreúva,Brazil,-23.3075,-47.13278
Cabo Frio,Brazil,-22.88717,-42.02622
Butiá,Brazil,-30.11972,-51.96222
Buritizeiro,Brazil,-17.35111,-44.96222
Buritis,Brazil,-15.61778,-46.42333
Buri,Brazil,-23.7975,-48.59278
Buerarema,Brazil,-14.95944,-39.29972
Brusque,Brazil,-27.09795,-48.91281
Brumado,Brazil,-14.20361,-41.66528
Brumadinho,Brazil,-20.14333,-44.19972
Brotas,Brazil,-22.28417,-48.12667
Brodósqui,Brazil,-20.99139,-47.65861
Brasília,Brazil,-15.77972,-47.92972
Bragança Paulista,Brazil,-22.9527,-46.54418
Braço do Norte,Brazil,-28.275,-49.16556
Botucatu,Brazil,-22.88583,-48.445
Bom Jesus do Itabapoana,Brazil,-21.13389,-41.67972
Bom Jesus da Lapa,Brazil,-13.255,-43.41806
Bom Despacho,Brazil,-19.73639,-45.25222
Boituva,Brazil,-23.28333,-47.67222
Bocaiúva,Brazil,-17.10778,-43.815
Boa Esperança,Brazil,-21.09,-45.56583
Blumenau,Brazil,-26.91944,-49.06611
Biritiba Mirim,Brazil,-23.5725,-46.03861
Birigui,Brazil,-21.28861,-50.34
Biguaçu,Brazil,-27.49417,-48.65556
Betim,Brazil,-19.96778,-44.19833
Bertioga,Brazil,-23.85444,-46.13861
Bento Gonçalves,Brazil,-29.17139,-51.51917
Belo Oriente,Brazil,-19.22,-42.48361
Belo Horizonte,Brazil,-19.92083,-43.93778
Belford Roxo,Brazil,-22.76417,-43.39944
Bela Vista,Brazil,-22.10889,-56.52111
Bebedouro,Brazil,-20.94944,-48.47917
Bauru,Brazil,-22.31472,-49.06056
Batatais,Brazil,-20.89111,-47.585
Bastos,Brazil,-21.92194,-50.73389
Barueri,Brazil,-23.51056,-46.87611
Barroso,Brazil,-21.18694,-43.97583
Barrinha,Brazil,-21.19361,-48.16389
Barretos,Brazil,-20.55722,-48.56778
Barreiro do Jaíba,Brazil,-15.61532,-43.59187
Barreiras,Brazil,-12.15278,-44.99
Barra Mansa,Brazil,-22.54417,-44.17139
Barra dos Coqueiros,Brazil,-10.90889,-37.03861
Barra do Piraí,Brazil,-22.47,-43.82556
Barra do Garças,Brazil,-15.89,-52.25667
Barra do Bugres,Brazil,-15.0725,-57.18111
Barra de São Francisco,Brazil,-18.755,-40.89083
Barra Bonita,Brazil,-22.49472,-48.55806
Barra,Brazil,-11.08944,-43.14167
Bariri,Brazil,-22.07444,-48.74028
Barbacena,Brazil,-21.22583,-43.77361
Barão de Cocais,Brazil,-19.94583,-43.48722
Bandeirantes,Brazil,-23.11,-50.3675
Bambuí,Brazil,-20.00639,-45.97694
Balneário Camboriú,Brazil,-26.99056,-48.63472
Baixo Guandu,Brazil,-19.51889,-41.01583
Bagé,Brazil,-31.33139,-54.10694
Avaré,Brazil,-23.09861,-48.92583
Atibaia,Brazil,-23.11694,-46.55028
Astorga,Brazil,-23.2325,-51.66556
Assis,Brazil,-22.66167,-50.41222
Arujá,Brazil,-23.39611,-46.32083
Artur Nogueira,Brazil,-22.57306,-47.1725
Arroio Grande,Brazil,-32.2375,-53.08694
Arroio do Meio,Brazil,-29.40111,-51.945
Arraial do Cabo,Brazil,-22.96611,-42.02778
Armação de Búzios,Brazil,-22.74694,-41.88167
Arcos,Brazil,-20.28194,-45.53944
Araxá,Brazil,-19.59333,-46.94056
Araucária,Brazil,-25.59306,-49.41028
Araruama,Brazil,-22.87278,-42.34306
Araras,Brazil,-22.35694,-47.38417
Araraquara,Brazil,-21.79444,-48.17556
Araranguá,Brazil,-28.93575,-49.49538
Arapongas,Brazil,-23.41944,-51.42444
Araguari,Brazil,-18.64722,-48.18722
Aragarças,Brazil,-15.8975,-52.25083
Araçuaí,Brazil,-16.84972,-42.07028
Aracruz,Brazil,-19.82028,-40.27333
Araçoiaba da Serra,Brazil,-23.50528,-47.61417
Araci,Brazil,-11.33333,-38.96667
Araçatuba,Brazil,-21.20889,-50.43278
Aracaju,Brazil,-10.91111,-37.07167
Aquidauana,Brazil,-20.47111,-55.78722
Apucarana,Brazil,-23.55083,-51.46083
Apiaí,Brazil,-24.50944,-48.8425
Aparecida do Taboado,Brazil,-20.08667,-51.09361
Aparecida,Brazil,-22.84694,-45.22972
Antonina,Brazil,-25.42861,-48.71194
Anicuns,Brazil,-16.46111,-49.96167
Angra dos Reis,Brazil,-23.00667,-44.31806
Andradina,Brazil,-20.89611,-51.37944
Andradas,Brazil,-22.06806,-46.56917
Anastácio,Brazil,-20.48361,-55.80694
Anápolis,Brazil,-16.32667,-48.95278
Amparo,Brazil,-22.70111,-46.76444
Américo Brasiliense,Brazil,-21.72444,-48.10167
Americana,Brazil,-22.73917,-47.33139
Amargosa,Brazil,-13.03028,-39.60472
Álvares Machado,Brazil,-22.07944,-51.47194
Almirante Tamandaré,Brazil,-25.32472,-49.31
Almenara,Brazil,-16.18361,-40.69444
Alfenas,Brazil,-21.42917,-45.94722
Além Paraíba,Brazil,-21.88778,-42.70444
Alegrete,Brazil,-29.78306,-55.79194
Alegre,Brazil,-20.76361,-41.53306
Alagoinhas,Brazil,-12.13556,-38.41917
Aimorés,Brazil,-19.49583,-41.06389
Agudos,Brazil,-22.46917,-48.9875
Águas Vermelhas,Brazil,-15.74722,-41.46
Águas de Lindóia,Brazil,-22.47639,-46.63278
Aguaí,Brazil,-22.05944,-46.97861
Adamantina,Brazil,-21.68528,-51.0725
Abaeté,Brazil,-19.16,-45.44583
Guaíba,Brazil,-30.11389,-51.325
Palmas,Brazil,-10.16745,-48.32766
Tefé,Brazil,-3.36841,-64.72054
Tarauacá,Brazil,-8.16139,-70.76556
Tabatinga,Brazil,-4.23116,-69.93858
Sena Madureira,Brazil,-9.06341,-68.67245
São Gabriel da Cachoeira,Brazil,-0.1181,-67.08527
Rio Branco,Brazil,-9.97472,-67.81
Porto Velho,Brazil,-8.76194,-63.90389
Manaus,Brazil,-3.10194,-60.025
Manacapuru,Brazil,-3.29972,-60.62056
Humaitá,Brazil,-7.51651,-63.03105
Fonte Boa,Brazil,-2.51389,-66.09167
Eirunepé,Brazil,-6.66028,-69.87361
Cruzeiro do Sul,Brazil,-7.62759,-72.67756
Coari,Brazil,-4.085,-63.14139
Carauari,Brazil,-4.88278,-66.89583
Boa Vista,Brazil,2.81972,-60.67333
Ariquemes,Brazil,-9.91333,-63.04083
Aripuanã,Brazil,-9.16667,-60.63333
Vilhena,Brazil,-12.74056,-60.14583
Pôsto Fiscal Rolim de Moura,Brazil,-13.08271,-62.27726
Pimenta Bueno,Brazil,-11.6725,-61.19361
Ouro Preto do Oeste,Brazil,-10.74806,-62.21583
Ji Paraná,Brazil,-10.88528,-61.95167
Jaru,Brazil,-10.43889,-62.46639
Guajará Mirim,Brazil,-10.78278,-65.33944
Cacoal,Brazil,-11.43861,-61.44722
Aparecida de Goiânia,Brazil,-16.82333,-49.24389
Campinas,Brazil,-27.59444,-48.60694
Jaboatão dos Guararapes,Brazil,-8.11278,-35.01472
Lauro de Freitas,Brazil,-12.89444,-38.32722
Pinhais,Brazil,-25.44472,-49.1925
Rio Preto da Eva,Brazil,-2.69795,-59.70172
Simões Filho,Brazil,-12.78444,-38.40389
Sinop,Brazil,-11.86417,-55.5025
Cambebba,Brazil,-3.62092,-38.82913
Trindade,Brazil,-27.58612,-48.52335
Planaltina,Brazil,-15.61791,-47.64874
Nassau,"Bahamas, The",25.05823,-77.34306
Lucaya,"Bahamas, The",26.53333,-78.66667
Freeport,"Bahamas, The",26.53333,-78.7
Thimphu,Bhutan,27.46609,89.64191
Punākha,Bhutan,27.59137,89.87743
Phuntsholing,Bhutan,26.85164,89.38837
Tsirang,Bhutan,27.0219,90.12291
Tonota,Botswana,-21.44236,27.46153
Thamaga,Botswana,-24.67014,25.53975
Serowe,Botswana,-22.38754,26.71077
Selebi-Phikwe,Botswana,-21.97895,27.84296
Ramotswa,Botswana,-24.87158,25.86989
Palapye,Botswana,-22.54605,27.12507
Mosopa,Botswana,-24.7718,25.42156
Molepolole,Botswana,-24.40659,25.49508
Mogoditshane,Botswana,-24.62694,25.86556
Mochudi,Botswana,-24.41667,26.15
Maun,Botswana,-19.98333,23.41667
Mahalapye,Botswana,-23.10407,26.81421
Lobatse,Botswana,-25.22435,25.67728
Letlhakane,Botswana,-21.41494,25.59263
Kanye,Botswana,-24.96675,25.33273
Janeng,Botswana,-25.41667,25.55
Gaborone,Botswana,-24.65451,25.90859
Francistown,Botswana,-21.16995,27.50787
Horad Zhodzina,Belarus,54.0985,28.3331
Zhlobin,Belarus,52.8926,30.024
Vitebsk,Belarus,55.1904,30.2049
Vilyeyka,Belarus,54.4914,26.9111
Vawkavysk,Belarus,53.1561,24.4513
Svyetlahorsk,Belarus,52.6329,29.7389
Stowbtsy,Belarus,53.4785,26.7434
Smarhon’,Belarus,54.4798,26.3957
Slutsk,Belarus,53.0274,27.5597
Slonim,Belarus,53.0869,25.3163
Shchuchin,Belarus,53.6014,24.7465
Salihorsk,Belarus,52.7876,27.5415
Rahachow,Belarus,53.0934,30.0495
Rechytsa,Belarus,52.3617,30.3916
Pruzhany,Belarus,52.556,24.4573
Polatsk,Belarus,55.4879,28.7856
Pinsk,Belarus,52.1229,26.0951
Pastavy,Belarus,55.11676,26.83263
Asipovichy,Belarus,53.3011,28.6386
Orsha,Belarus,54.5081,30.4172
Novoye Medvezhino,Belarus,53.88333,27.45
Navapolatsk,Belarus,55.5318,28.5987
Navahrudak,Belarus,53.5942,25.8191
Minsk,Belarus,53.9,27.56667
Mazyr,Belarus,52.0495,29.2456
Masty,Belarus,53.4122,24.5387
Mar’’ina Horka,Belarus,53.509,28.147
Maladzyechna,Belarus,54.3167,26.854
Mahilyow,Belarus,53.9168,30.3449
Lyepyel’,Belarus,54.8814,28.699
Luninyets,Belarus,52.2472,26.8047
Lida,Belarus,53.88333,25.29972
Krychaw,Belarus,53.7125,31.717
Kalodzishchy,Belarus,53.944,27.7823
Kobryn,Belarus,52.2138,24.3564
Kalinkavichy,Belarus,52.1323,29.3257
Ivatsevichy,Belarus,52.709,25.3401
Hrodna,Belarus,53.6884,23.8258
Horki,Belarus,54.2862,30.9863
Gomel,Belarus,52.4345,30.9754
Hlybokaye,Belarus,55.1384,27.6905
Dzyarzhynsk,Belarus,53.6832,27.138
Dobrush,Belarus,52.4089,31.3237
Bykhaw,Belarus,53.521,30.2454
Byaroza,Belarus,52.5314,24.9786
Brest,Belarus,52.09755,23.68775
Horad Barysaw,Belarus,54.2279,28.505
Baranovichi,Belarus,53.1327,26.0139
Babruysk,Belarus,53.1384,29.2214
Malinovka,Belarus,53.8579,27.4374
San Ignacio,Belize,17.1588,-89.0696
Orange Walk,Belize,18.08124,-88.56328
Belmopan,Belize,17.25,-88.76667
Belize City,Belize,17.49952,-88.19756
Abbotsford,Canada,49.05798,-122.25257
Airdrie,Canada,51.30011,-114.03528
Ajax,Canada,43.85012,-79.03288
Alma,Canada,48.55009,-71.6491
Amos,Canada,48.56688,-78.11624
Anmore,Canada,49.31637,-122.85263
Baie-Comeau,Canada,49.21679,-68.14894
Barrie,Canada,44.40011,-79.66634
Beaconsfield,Canada,45.43341,-73.86586
Belleville,Canada,44.16682,-77.38277
Beloeil,Canada,45.56678,-73.19915
Blainville,Canada,45.66678,-73.88249
Boisbriand,Canada,45.61678,-73.83249
Boucherville,Canada,45.59104,-73.43605
Brampton,Canada,43.68341,-79.76633
Brandon,Canada,49.84692,-99.95306
Brant,Canada,43.1334,-80.34967
Brantford,Canada,43.1334,-80.26636
Brockville,Canada,44.59132,-75.68705
Brossard,Canada,45.45008,-73.46583
Burlington,Canada,43.38621,-79.83713
Burnaby,Canada,49.26636,-122.95263
Calgary,Canada,51.05011,-114.08529
Cambridge,Canada,43.3601,-80.31269
Campbell River,Canada,50.01634,-125.24459
Camrose,Canada,53.01684,-112.83525
Candiac,Canada,45.38338,-73.51587
Chambly,Canada,45.45008,-73.28246
Charlottetown,Canada,46.23899,-63.13414
Châteauguay,Canada,45.38338,-73.74919
Chilliwack,Canada,49.16638,-121.95257
Clarence-Rockland,Canada,45.5501,-75.29101
Cobourg,Canada,43.95977,-78.16515
Cochrane,Canada,51.18341,-114.46871
Collingwood,Canada,44.4834,-80.21638
Conception Bay South,Canada,47.49989,-52.99806
Coquitlam,Canada,49.28297,-122.75262
Corner Brook,Canada,48.95001,-57.95202
Cornwall,Canada,45.01809,-74.72815
Côte-Saint-Luc,Canada,45.46536,-73.66585
Courtenay,Canada,49.68657,-124.9936
Cranbrook,Canada,49.49991,-115.76879
Dartmouth,Canada,44.67134,-63.57719
Delta,Canada,49.14399,-122.9068
Deux-Montagnes,Canada,45.53455,-73.90168
Dieppe,Canada,46.07844,-64.68735
Dollard-Des Ormeaux,Canada,45.49452,-73.82419
Dorval,Canada,45.4473,-73.75335
Drummondville,Canada,45.88336,-72.48241
Duncan,Canada,48.78293,-123.70266
Edmonton,Canada,53.55014,-113.46871
Etobicoke,Canada,43.65421,-79.56711
Fort Erie,Canada,42.90012,-78.93286
Fort McMurray,Canada,56.72676,-111.38103
Fort St. John,Canada,56.24988,-120.85292
Fredericton,Canada,45.94541,-66.66558
Gatineau,Canada,45.47723,-75.70164
Glace Bay,Canada,46.19695,-59.95698
Granby,Canada,45.40008,-72.73243
Grande Prairie,Canada,55.16667,-118.80271
Greater Sudbury,Canada,46.49,-80.99001
Greater Napanee,Canada,44.25012,-76.94944
Guelph,Canada,43.54594,-80.25599
Hamilton,Canada,43.25011,-79.84963
Huntsville,Canada,45.33341,-79.21632
Joliette,Canada,46.0164,-73.4236
Kamloops,Canada,50.66648,-120.3192
Kelowna,Canada,49.88307,-119.48568
Keswick,Canada,44.25011,-79.46632
Kingston,Canada,44.22976,-76.48098
Kirkland,Canada,45.45008,-73.86586
Kitchener,Canada,43.42537,-80.5112
Langford,Canada,48.44963,-123.50261
Langley,Canada,49.10107,-122.65883
Langley,Canada,49.08297,-122.58589
La Prairie,Canada,45.41678,-73.49917
L'Assomption,Canada,45.82318,-73.4294
Laval,Canada,45.56995,-73.692
Leduc,Canada,53.26682,-113.55201
Lethbridge,Canada,49.69999,-112.81856
Lloydminster,Canada,53.28346,-110.00157
London,Canada,42.98339,-81.23304
Longueuil,Canada,45.53121,-73.51806
Lutes Mountain,Canada,46.13544,-64.90504
Magog,Canada,45.26678,-72.14909
Maple Ridge,Canada,49.21939,-122.60193
Markham,Canada,43.86682,-79.2663
Mascouche,Canada,45.74965,-73.59956
Medicine Hat,Canada,50.03928,-110.67661
Midland,Canada,44.7501,-79.88296
Milton,Canada,43.51681,-79.88294
Mirabel,Canada,45.65008,-74.08251
Miramichi,Canada,47.02895,-65.50186
Mississauga,Canada,43.5789,-79.6583
Moncton,Canada,46.09454,-64.7965
Montréal,Canada,45.50884,-73.58781
Mont-Royal,Canada,45.51675,-73.64918
Mont-Saint-Hilaire,Canada,45.56678,-73.19915
Moose Jaw,Canada,50.40005,-105.53445
Mount Pearl,Canada,47.51659,-52.78135
Nanaimo,Canada,49.16638,-123.94003
New Glasgow,Canada,45.58344,-62.64863
Newmarket,Canada,44.05011,-79.46631
New Westminster,Canada,49.20678,-122.91092
Niagara Falls,Canada,43.10012,-79.06627
Norfolk County,Canada,42.8334,-80.38297
North Battleford,Canada,52.77972,-108.2967
North Bay,Canada,46.3168,-79.46633
North Cowichan,Canada,48.84133,-123.68596
North Vancouver,Canada,49.31636,-123.06934
North York,Canada,43.76681,-79.4163
Oshawa,Canada,43.90012,-78.84957
Ottawa,Canada,45.41117,-75.69812
Owen Sound,Canada,44.56717,-80.94349
Pembroke,Canada,45.81681,-77.11616
Penticton,Canada,49.48062,-119.58584
Petawawa,Canada,45.89452,-77.28007
Peterborough,Canada,44.30012,-78.31623
Pickering,Canada,43.90012,-79.13289
Pitt Meadows,Canada,49.22119,-122.68965
Pointe-Claire,Canada,45.44868,-73.81669
Port Alberni,Canada,49.24133,-124.8028
Port Colborne,Canada,42.90012,-79.23288
Prince Albert,Canada,53.20008,-105.76772
Prince Edward,Canada,44.00012,-77.24946
Prince George,Canada,53.9166,-122.75301
Quinte West,Canada,44.18342,-77.56618
Rayside-Balfour,Canada,46.60873,-81.20763
Red Deer,Canada,52.26682,-113.802
Regina,Canada,50.45008,-104.6178
Repentigny,Canada,45.74222,-73.45008
Richmond,Canada,49.17003,-123.13683
Richmond Hill,Canada,43.87111,-79.43725
Rock Forest,Canada,45.35699,-71.99676
Rouyn-Noranda,Canada,48.23656,-79.02311
Saguenay,Canada,48.41675,-71.06573
Saint-Basile-le-Grand,Canada,45.53338,-73.28246
Saint-Bruno-de-Montarville,Canada,45.53341,-73.34916
Saint-Constant,Canada,45.36678,-73.56588
Sainte-Catherine,Canada,46.31836,-72.56632
Sainte-Julie,Canada,45.58338,-73.33246
Sainte-Thérèse,Canada,45.63922,-73.82757
Saint-Eustache,Canada,45.565,-73.90554
Saint-Hyacinthe,Canada,45.63076,-72.95699
Saint-Jean-sur-Richelieu,Canada,45.30713,-73.26259
Saint-Jérôme,Canada,45.78036,-74.00365
Saint John,Canada,45.27271,-66.06766
Saint-Laurent,Canada,45.50008,-73.66585
Saint-Lazare,Canada,45.40008,-74.13256
Saint-Léonard,Canada,45.58773,-73.59501
Salaberry-de-Valleyfield,Canada,45.25008,-74.13253
Salmon Arm,Canada,50.6998,-119.30237
Sarnia,Canada,42.97866,-82.40407
Saskatoon,Canada,52.13238,-106.66892
Sault Ste. Marie,Canada,46.51677,-84.33325
Sept-Îles,Canada,50.20011,-66.38208
Shawinigan,Canada,46.56675,-72.74913
Sherbrooke,Canada,45.40008,-71.89908
Sherwood Park,Canada,53.51684,-113.3187
Sorel-Tracy,Canada,46.03336,-73.11585
Spruce Grove,Canada,53.53344,-113.91874
St. Albert,Canada,53.63344,-113.63533
St. Catharines,Canada,43.17126,-79.24267
Stratford,Canada,43.36679,-80.94972
St. Thomas,Canada,42.77361,-81.18038
Surrey,Canada,49.10635,-122.82509
Terrace,Canada,54.51634,-128.60345
Terrebonne,Canada,45.70004,-73.64732
Thorold,Canada,43.11682,-79.19958
Thunder Bay,Canada,48.38202,-89.25018
Timmins,Canada,48.46686,-81.33312
Toronto,Canada,43.70011,-79.4163
Trois-Rivières,Canada,46.34515,-72.5477
Truro,Canada,45.36685,-63.26538
Val-d'Or,Canada,48.0974,-77.79737
Vancouver,Canada,49.24966,-123.11934
Varennes,Canada,45.68338,-73.43246
Vaudreuil-Dorion,Canada,45.40008,-74.03251
Vaughan,Canada,43.8361,-79.49827
Vernon,Canada,50.26729,-119.27337
Victoriaville,Canada,46.05007,-71.96579
Waterloo,Canada,43.4668,-80.51639
Welland,Canada,42.98342,-79.24958
West End,Canada,49.28333,-123.13333
Westmount,Canada,45.48341,-73.59918
Whitehorse,Canada,60.71611,-135.05375
Windsor,Canada,42.30008,-83.01654
Winnipeg,Canada,49.8844,-97.14704
Woodstock,Canada,43.13339,-80.7497
Yellowknife,Canada,62.45411,-114.37248
Yorkton,Canada,51.2167,-102.46766
Québec,Canada,46.81228,-71.21454
Lévis,Canada,46.80326,-71.17793
Rimouski,Canada,48.44879,-68.52396
Rivière-du-Loup,Canada,47.82699,-69.54243
Sydney,Canada,46.1351,-60.1831
L'Ancienne-Lorette,Canada,46.79392,-71.35191
Edmundston,Canada,47.3737,-68.32512
Saint-Georges,Canada,46.11353,-70.66526
Thetford-Mines,Canada,46.09371,-71.30539
Scarborough,Canada,43.77223,-79.25666
Cole Harbour,Canada,44.67244,-63.47506
Okanagan,Canada,50.36386,-119.34997
West Kelowna,Canada,49.8625,-119.58333
Jonquière,Canada,48.41648,-71.24884
Saint-Augustin-de-Desmaures,Canada,46.74064,-71.45131
Ladner,Canada,49.08938,-123.08241
Walnut Grove,Canada,49.16473,-122.64042
East York,Canada,43.69053,-79.32794
Ancaster,Canada,43.21806,-79.98716
West Vancouver,Canada,49.36672,-123.16652
Willowdale,Canada,43.76672,-79.39909
Lower Sackville,Canada,44.77599,-63.67865
Yangambi,"Congo, Democratic Republic of The",0.76755,24.43973
Watsa,"Congo, Democratic Republic of The",3.03716,29.53551
Wamba,"Congo, Democratic Republic of The",2.14838,27.99466
Uvira,"Congo, Democratic Republic of The",-3.39534,29.13779
Tshikapa,"Congo, Democratic Republic of The",-6.41621,20.79995
Sake,"Congo, Democratic Republic of The",-1.57386,29.04339
Mwene-Ditu,"Congo, Democratic Republic of The",-7.00906,23.45278
Mweka,"Congo, Democratic Republic of The",-4.85187,21.5595
Mbuji-Mayi,"Congo, Democratic Republic of The",-6.13603,23.58979
Lusambo,"Congo, Democratic Republic of The",-4.97503,23.44391
Luebo,"Congo, Democratic Republic of The",-5.35218,21.42192
Lubao,"Congo, Democratic Republic of The",-5.38771,25.74885
Lodja,"Congo, Democratic Republic of The",-3.52105,23.6005
Lisala,"Congo, Democratic Republic of The",2.15127,21.51672
Kongolo,"Congo, Democratic Republic of The",-5.38532,27.00029
Kisangani,"Congo, Democratic Republic of The",0.51528,25.19099
Kindu,"Congo, Democratic Republic of The",-2.94373,25.92237
Kasongo,"Congo, Democratic Republic of The",-4.42741,26.66656
Kananga,"Congo, Democratic Republic of The",-5.89624,22.41659
Kampene,"Congo, Democratic Republic of The",-3.59678,26.66715
Kamina,"Congo, Democratic Republic of The",-8.73508,24.99798
Kalemie,"Congo, Democratic Republic of The",-5.94749,29.19471
Kabinda,"Congo, Democratic Republic of The",-6.13791,24.48179
Kabare,"Congo, Democratic Republic of The",-2.49682,28.79081
Kabalo,"Congo, Democratic Republic of The",-6.05255,26.9143
Isiro,"Congo, Democratic Republic of The",2.77391,27.61603
Ilebo,"Congo, Democratic Republic of The",-4.33111,20.58638
Goma,"Congo, Democratic Republic of The",-1.67409,29.22845
Gbadolite,"Congo, Democratic Republic of The",4.279,21.00284
Gandajika,"Congo, Democratic Republic of The",-6.74504,23.95328
Demba,"Congo, Democratic Republic of The",-5.49573,22.26962
Butembo,"Congo, Democratic Republic of The",0.14164,29.29117
Buta,"Congo, Democratic Republic of The",2.78582,24.72997
Businga,"Congo, Democratic Republic of The",3.33863,20.88577
Bunia,"Congo, Democratic Republic of The",1.55941,30.25224
Bumba,"Congo, Democratic Republic of The",2.18771,22.46827
Bukavu,"Congo, Democratic Republic of The",-2.49077,28.84281
Bukama,"Congo, Democratic Republic of The",-9.20443,25.85475
Bondo,"Congo, Democratic Republic of The",3.81461,23.68665
Boende,"Congo, Democratic Republic of The",-0.28163,20.88053
Beni,"Congo, Democratic Republic of The",0.49113,29.47306
Basoko,"Congo, Democratic Republic of The",1.23909,23.61598
Aketi,"Congo, Democratic Republic of The",2.73877,23.78326
Lubumbashi,"Congo, Democratic Republic of The",-11.66089,27.47938
Likasi,"Congo, Democratic Republic of The",-10.98303,26.7384
Kolwezi,"Congo, Democratic Republic of The",-10.71484,25.46674
Kipushi,"Congo, Democratic Republic of The",-11.76097,27.25135
Kambove,"Congo, Democratic Republic of The",-10.87352,26.59746
Tshela,"Congo, Democratic Republic of The",-4.99707,12.9484
Nioki,"Congo, Democratic Republic of The",-2.72037,17.69001
Mushie,"Congo, Democratic Republic of The",-3.01728,16.92238
Mbanza-Ngungu,"Congo, Democratic Republic of The",-5.25837,14.85838
Mbandaka,"Congo, Democratic Republic of The",0.04865,18.26034
Matadi,"Congo, Democratic Republic of The",-5.83861,13.46306
Mangai,"Congo, Democratic Republic of The",-4.02328,19.53385
Libenge,"Congo, Democratic Republic of The",3.65332,18.63566
Kinshasa,"Congo, Democratic Republic of The",-4.32758,15.31357
Kikwit,"Congo, Democratic Republic of The",-5.04098,18.81619
Kasongo-Lunda,"Congo, Democratic Republic of The",-6.47833,16.81735
Kasangulu,"Congo, Democratic Republic of The",-4.5833,15.16554
Inongo,"Congo, Democratic Republic of The",-1.9275,18.2881
Gemena,"Congo, Democratic Republic of The",3.25651,19.77234
Bulungu,"Congo, Democratic Republic of The",-4.54437,18.60364
Bolobo,"Congo, Democratic Republic of The",-2.158,16.23249
Bandundu,"Congo, Democratic Republic of The",-3.31687,17.38063
Masina,"Congo, Democratic Republic of The",-4.38361,15.39139
Mobaye,Central African Republic,4.31902,21.17861
Ippy,Central African Republic,6.26793,21.22468
Bria,Central African Republic,6.54233,21.98633
Bangassou,Central African Republic,4.74132,22.81838
Bambari,Central African Republic,5.76795,20.67565
Sibut,Central African Republic,5.71801,19.07389
Paoua,Central African Republic,7.24269,16.44059
Nola,Central African Republic,3.52494,16.04583
Mbaïki,Central African Republic,3.86781,17.98923
Kaga Bandoro,Central African Republic,6.98961,19.18744
Damara,Central African Republic,4.96075,18.7035
Carnot,Central African Republic,4.94273,15.87735
Bozoum,Central African Republic,6.31933,16.37992
Bouar,Central African Republic,5.93404,15.59599
Bossangoa,Central African Republic,6.49263,17.45518
Boda,Central African Republic,4.31887,17.46953
Bimbo,Central African Republic,4.25671,18.41583
Berbérati,Central African Republic,4.26116,15.79216
Batangafo,Central African Republic,7.30082,18.2833
Bangui,Central African Republic,4.36122,18.55496
Sibiti,Congo,-3.68192,13.34985
Pointe-Noire,Congo,-4.77609,11.86352
Owando,Congo,-0.48193,15.89988
Ouésso,Congo,1.61361,16.05167
Mossendjo,Congo,-2.94968,12.70423
Madingou,Congo,-4.15361,13.55
Dolisie,Congo,-4.19834,12.66664
Loandjili,Congo,-4.75611,11.85778
Kayes,Congo,-4.20493,13.28608
Impfondo,Congo,1.61804,18.05981
Gamboma,Congo,-1.87639,15.86444
Brazzaville,Congo,-4.26613,15.28318
Zürich,Switzerland,47.36667,8.55
Zug,Switzerland,47.17242,8.51745
Yverdon-les-Bains,Switzerland,46.77852,6.64115
Winterthur,Switzerland,47.50564,8.72413
Wil,Switzerland,47.46152,9.04552
Wettingen,Switzerland,47.47049,8.31636
Vevey,Switzerland,46.46299,6.84345
Vernier,Switzerland,46.21702,6.08497
Uster,Switzerland,47.34713,8.72091
Thun,Switzerland,46.75118,7.62166
Steffisburg,Switzerland,46.77807,7.63249
Sitten,Switzerland,46.22739,7.35559
Sierre,Switzerland,46.29192,7.53559
Zürich (Kreis 11) / Seebach,Switzerland,47.42181,8.54779
Schaffhausen,Switzerland,47.69732,8.63493
Sankt Gallen,Switzerland,47.42391,9.37477
Renens,Switzerland,46.53989,6.5881
Rapperswil,Switzerland,47.22557,8.82228
Pully,Switzerland,46.51027,6.66183
Onex,Switzerland,46.18396,6.10237
Olten,Switzerland,47.34999,7.90329
Zürich (Kreis 11) / Oerlikon,Switzerland,47.40823,8.54258
Nyon,Switzerland,46.38318,6.23955
Neuchâtel,Switzerland,46.99179,6.931
Muttenz,Switzerland,47.52271,7.64511
Montreux,Switzerland,46.43301,6.91143
Monthey,Switzerland,46.25451,6.95406
Meyrin,Switzerland,46.23424,6.08025
Luzern,Switzerland,47.05048,8.30635
Lugano,Switzerland,46.01008,8.96004
Littau,Switzerland,47.05,8.26274
Le Châtelard,Switzerland,46.44527,6.89908
Lausanne,Switzerland,46.516,6.63282
La Chaux-de-Fonds,Switzerland,47.09993,6.82586
Kriens,Switzerland,47.03537,8.27631
Kreuzlingen,Switzerland,47.65051,9.17504
Köniz,Switzerland,46.92436,7.41457
Kloten,Switzerland,47.45152,8.58491
Jona,Switzerland,47.22983,8.83884
Horgen,Switzerland,47.25983,8.59778
Zürich (Kreis 10) / Höngg,Switzerland,47.40313,8.4971
Herisau,Switzerland,47.38615,9.27916
Grenchen,Switzerland,47.1921,7.39586
Gossau,Switzerland,47.41551,9.25482
Genève,Switzerland,46.20222,6.14569
Fribourg,Switzerland,46.80237,7.15128
Frauenfeld,Switzerland,47.55776,8.89893
Emmen,Switzerland,47.08615,8.30046
Dübendorf,Switzerland,47.39724,8.61872
Dietikon,Switzerland,47.40165,8.40015
Chur,Switzerland,46.84986,9.53287
Carouge,Switzerland,46.18096,6.13921
Biel/Bienne,Switzerland,47.13713,7.24608
Bern,Switzerland,46.94809,7.44744
Bellinzona,Switzerland,46.19278,9.01703
Basel,Switzerland,47.55839,7.57327
Baden,Switzerland,47.47333,8.30592
Baar,Switzerland,47.19625,8.52954
Zürich (Kreis 4) / Aussersihl,Switzerland,47.37752,8.52127
Allschwil,Switzerland,47.55074,7.53599
Tergnier,France,49.65607,3.30107
Adliswil,Switzerland,47.30997,8.52462
Aarau,Switzerland,47.39254,8.04422
Riehen,Switzerland,47.57884,7.64683
Zürich (Kreis 10) / Wipkingen,Switzerland,47.39503,8.52529
Zürich (Kreis 11) / Affoltern,Switzerland,47.41814,8.5122
Zürich (Kreis 2) / Wollishofen,Switzerland,47.3401,8.53134
Zürich (Kreis 3) / Sihlfeld,Switzerland,47.37382,8.51164
Zürich (Kreis 6) / Unterstrass,Switzerland,47.3953,8.53721
Zürich (Kreis 9) / Albisrieden,Switzerland,47.37398,8.49007
Zürich (Kreis 9) / Altstetten,Switzerland,47.38946,8.48533
Stadt Winterthur (Kreis 1),Switzerland,47.49494,8.71954
Zürich (Kreis 12),Switzerland,47.40372,8.57608
Seen (Kreis 3),Switzerland,47.47646,8.76996
Zürich (Kreis 3),Switzerland,47.35785,8.50296
Zürich (Kreis 11),Switzerland,47.42326,8.52166
Zürich (Kreis 9),Switzerland,47.38245,8.47993
Oberwinterthur (Kreis 2),Switzerland,47.51692,8.76863
Zürich (Kreis 10),Switzerland,47.40773,8.5005
Zürich (Kreis 2),Switzerland,47.33756,8.5211
Zürich (Kreis 8),Switzerland,47.3548,8.56097
Zürich (Kreis 7),Switzerland,47.37328,8.58038
Zürich (Kreis 6),Switzerland,47.39223,8.54381
Lancy,Switzerland,46.18981,6.11441
Zuénoula,Côte dʼIvoire,7.43027,-6.05054
Yamoussoukro,Côte dʼIvoire,6.82055,-5.27674
